%time,field.header.seq,field.header.stamp,field.header.frame_id,field.status.status,field.status.service,field.latitude,field.longitude,field.altitude,field.position_covariance0,field.position_covariance1,field.position_covariance2,field.position_covariance3,field.position_covariance4,field.position_covariance5,field.position_covariance6,field.position_covariance7,field.position_covariance8,field.position_covariance_type
1594660096198847690,177,1594660096199588663,gps_base,0,7,39.5380479,-119.81414,1346.807,178.997641,0.0,0.0,0.0,178.997641,0.0,0.0,0.0,229.8256,2
1594660096398799761,178,1594660096399588612,gps_base,0,7,39.5380478,-119.8141394,1346.848,177.982281,0.0,0.0,0.0,177.982281,0.0,0.0,0.0,227.919409,2
1594660096598634659,179,1594660096599588561,gps_base,0,7,39.5380478,-119.8141391,1346.903,176.996416,0.0,0.0,0.0,176.996416,0.0,0.0,0.0,226.081296,2
1594660096798770578,180,1594660096799588510,gps_base,0,7,39.5380477,-119.8141385,1346.958,176.013289,0.0,0.0,0.0,176.013289,0.0,0.0,0.0,224.011089,2
1594660097002699656,181,1594660096999588460,gps_base,0,7,39.5380476,-119.8141392,1347.039,174.953529,0.0,0.0,0.0,174.953529,0.0,0.0,0.0,221.980201,2
1594660097198605212,182,1594660097199588408,gps_base,0,7,39.5380481,-119.8141371,1347.061,173.606976,0.0,0.0,0.0,173.606976,0.0,0.0,0.0,219.9289,2
1594660097398553465,183,1594660097399588357,gps_base,0,7,39.5380481,-119.8141366,1347.177,171.505216,0.0,0.0,0.0,171.505216,0.0,0.0,0.0,217.474009,2
1594660097598702747,184,1594660097599588306,gps_base,0,7,39.5380476,-119.8141339,1347.202,169.572484,0.0,0.0,0.0,169.572484,0.0,0.0,0.0,215.355625,2
1594660097798519522,185,1594660097799588255,gps_base,0,7,39.5380474,-119.8141277,1347.003,168.844036,0.0,0.0,0.0,168.844036,0.0,0.0,0.0,213.539769,2
1594660098001874589,186,1594660097999588203,gps_base,0,7,39.5380473,-119.8141288,1347.784,168.350625,0.0,0.0,0.0,168.350625,0.0,0.0,0.0,211.237156,2
1594660098198730325,187,1594660098199588153,gps_base,0,7,39.5380469,-119.8141269,1347.36,168.766081,0.0,0.0,0.0,168.766081,0.0,0.0,0.0,210.279001,2
1594660098399467723,188,1594660098399588101,gps_base,0,7,39.5380466,-119.814126,1347.511,168.948004,0.0,0.0,0.0,168.948004,0.0,0.0,0.0,209.438784,2
1594660098598537774,189,1594660098599588050,gps_base,0,7,39.5380461,-119.8141268,1347.841,169.2601,0.0,0.0,0.0,169.2601,0.0,0.0,0.0,208.686916,2
1594660098799154150,190,1594660098799587999,gps_base,0,7,39.5380462,-119.8141264,1347.888,169.5204,0.0,0.0,0.0,169.5204,0.0,0.0,0.0,208.138329,2
1594660099198405870,191,1594660099199587896,gps_base,0,7,39.5380463,-119.8141267,1348.23,169.7809,0.0,0.0,0.0,169.7809,0.0,0.0,0.0,206.899456,2
1594660099398706895,192,1594660099399587845,gps_base,0,7,39.5380472,-119.8141248,1348.327,170.433025,0.0,0.0,0.0,170.433025,0.0,0.0,0.0,207.187236,2
1594660099598437323,193,1594660099599587794,gps_base,0,7,39.5380472,-119.8141221,1348.294,171.112561,0.0,0.0,0.0,171.112561,0.0,0.0,0.0,207.331201,2
1594660099798546383,194,1594660099799587743,gps_base,0,7,39.5380472,-119.8141218,1348.487,171.662404,0.0,0.0,0.0,171.662404,0.0,0.0,0.0,207.475216,2
1594660100002352210,195,1594660099999587693,gps_base,0,7,39.5380468,-119.8141198,1348.486,172.213129,0.0,0.0,0.0,172.213129,0.0,0.0,0.0,207.6481,2
1594660100198441030,196,1594660100199587640,gps_base,0,7,39.5380464,-119.814118,1348.662,172.6596,0.0,0.0,0.0,172.6596,0.0,0.0,0.0,207.792225,2
1594660100398289182,197,1594660100399587590,gps_base,0,7,39.5380471,-119.8141093,1348.842,173.080336,0.0,0.0,0.0,173.080336,0.0,0.0,0.0,207.849889,2
1594660100598673023,198,1594660100599587539,gps_base,0,7,39.5380462,-119.8141046,1348.884,173.396224,0.0,0.0,0.0,173.396224,0.0,0.0,0.0,207.878724,2
1594660100798419802,199,1594660100799587487,gps_base,0,7,39.5380448,-119.8141013,1349.113,173.791489,0.0,0.0,0.0,173.791489,0.0,0.0,0.0,207.849889,2
1594660101002041154,200,1594660100999587437,gps_base,0,7,39.5380445,-119.8140997,1349.256,174.160809,0.0,0.0,0.0,174.160809,0.0,0.0,0.0,207.849889,2
1594660101397914651,201,1594660101399587336,gps_base,0,7,39.5380437,-119.8140917,1349.146,175.112289,0.0,0.0,0.0,175.112289,0.0,0.0,0.0,207.9364,2
1594660101598176529,202,1594660101599587285,gps_base,0,7,39.538043,-119.814092,1349.264,175.721536,0.0,0.0,0.0,175.721536,0.0,0.0,0.0,208.051776,2
1594660101798175722,203,1594660101799587233,gps_base,0,7,39.5380419,-119.8140939,1349.549,176.119441,0.0,0.0,0.0,176.119441,0.0,0.0,0.0,208.167184,2
1594660102001225327,204,1594660101999587183,gps_base,0,7,39.5380404,-119.8140964,1349.832,176.677264,0.0,0.0,0.0,176.677264,0.0,0.0,0.0,208.426969,2
1594660102197932317,205,1594660102199587131,gps_base,0,7,39.5380385,-119.8140973,1350.002,177.129481,0.0,0.0,0.0,177.129481,0.0,0.0,0.0,208.715809,2
1594660102398241135,206,1594660102399587081,gps_base,0,7,39.5380364,-119.8140943,1349.994,177.715561,0.0,0.0,0.0,177.715561,0.0,0.0,0.0,209.120521,2
1594660102798074676,207,1594660102799586981,gps_base,0,7,39.5380338,-119.8140886,1350.036,178.409449,0.0,0.0,0.0,178.409449,0.0,0.0,0.0,210.018064,2
1594660103001612440,208,1594660102999586931,gps_base,0,7,39.5380318,-119.8140878,1350.171,179.0244,0.0,0.0,0.0,179.0244,0.0,0.0,0.0,210.627169,2
1594660103197984048,209,1594660103199586879,gps_base,0,7,39.5380294,-119.8140874,1350.232,179.801281,0.0,0.0,0.0,179.801281,0.0,0.0,0.0,211.382521,2
1594660103398115967,210,1594660103399586828,gps_base,0,7,39.5380274,-119.8140902,1350.443,180.741136,0.0,0.0,0.0,180.741136,0.0,0.0,0.0,212.197489,2
1594660103598292773,211,1594660103599586777,gps_base,0,7,39.5380256,-119.8140906,1350.527,181.4409,0.0,0.0,0.0,181.4409,0.0,0.0,0.0,212.955649,2
1594660103798141403,212,1594660103799586727,gps_base,0,7,39.5380234,-119.8140876,1350.507,181.9801,0.0,0.0,0.0,181.9801,0.0,0.0,0.0,213.773641,2
1594660104001196192,213,1594660103999586679,gps_base,0,7,39.5380219,-119.8140836,1350.545,182.709289,0.0,0.0,0.0,182.709289,0.0,0.0,0.0,214.593201,2
1594660104197991076,214,1594660104199586628,gps_base,0,7,39.5380216,-119.8140813,1350.66,183.656704,0.0,0.0,0.0,183.656704,0.0,0.0,0.0,215.384976,2
1594660104397787724,215,1594660104399586578,gps_base,0,7,39.5380199,-119.8140791,1350.719,184.4164,0.0,0.0,0.0,184.4164,0.0,0.0,0.0,215.766721,2
1594660104798011981,216,1594660104799586478,gps_base,0,7,39.5380161,-119.8140737,1351.07,185.885956,0.0,0.0,0.0,185.885956,0.0,0.0,0.0,216.442944,2
1594660105000957632,217,1594660104999586428,gps_base,0,7,39.5380143,-119.8140745,1351.287,186.486336,0.0,0.0,0.0,186.486336,0.0,0.0,0.0,216.619524,2
1594660105397790392,218,1594660105399586327,gps_base,0,7,39.5380116,-119.8140725,1351.739,187.717401,0.0,0.0,0.0,187.717401,0.0,0.0,0.0,217.031824,2
1594660105597883987,219,1594660105599586276,gps_base,0,7,39.5380094,-119.8140759,1351.87,188.183524,0.0,0.0,0.0,188.183524,0.0,0.0,0.0,217.149696,2
1594660105797795109,220,1594660105799586227,gps_base,0,7,39.5380065,-119.8140716,1351.896,188.705169,0.0,0.0,0.0,188.705169,0.0,0.0,0.0,217.533001,2
1594660106001532147,221,1594660105999586177,gps_base,0,7,39.538005,-119.8140756,1352.284,189.502756,0.0,0.0,0.0,189.502756,0.0,0.0,0.0,217.975696,2
1594660106397570016,222,1594660106399586074,gps_base,0,7,39.5380027,-119.8140831,1352.923,191.020041,0.0,0.0,0.0,191.020041,0.0,0.0,0.0,219.128809,2
1594660106597647804,223,1594660106599586023,gps_base,0,7,39.5380013,-119.814083,1353.146,191.905609,0.0,0.0,0.0,191.905609,0.0,0.0,0.0,219.662041,2
1594660106797453226,224,1594660106799585973,gps_base,0,7,39.5380005,-119.8140836,1353.212,192.820996,0.0,0.0,0.0,192.820996,0.0,0.0,0.0,220.166244,2
1594660107000955532,225,1594660106999585925,gps_base,0,7,39.5379999,-119.8140794,1353.32,193.682889,0.0,0.0,0.0,193.682889,0.0,0.0,0.0,220.552201,2
1594660107197656647,226,1594660107199585873,gps_base,0,7,39.5379992,-119.8140814,1353.619,194.574601,0.0,0.0,0.0,194.574601,0.0,0.0,0.0,221.027689,2
1594660107397760741,227,1594660107399585824,gps_base,0,7,39.537998,-119.8140778,1353.656,195.384484,0.0,0.0,0.0,195.384484,0.0,0.0,0.0,221.473924,2
1594660107597303513,228,1594660107599585774,gps_base,0,7,39.5379964,-119.8140775,1353.897,195.412441,0.0,0.0,0.0,195.412441,0.0,0.0,0.0,221.146641,2
1594660107797572247,229,1594660107799585725,gps_base,0,7,39.5379951,-119.8140721,1353.85,194.937444,0.0,0.0,0.0,194.937444,0.0,0.0,0.0,220.997956,2
1594660108000792558,230,1594660107999585676,gps_base,0,7,39.5379952,-119.8140718,1353.881,194.212096,0.0,0.0,0.0,194.212096,0.0,0.0,0.0,220.938496,2
1594660108397775761,231,1594660108399585575,gps_base,0,7,39.5379948,-119.8140725,1354.331,194.184225,0.0,0.0,0.0,194.184225,0.0,0.0,0.0,221.146641,2
1594660108597158110,232,1594660108599585526,gps_base,0,7,39.5379936,-119.8140687,1354.255,194.658304,0.0,0.0,0.0,194.658304,0.0,0.0,0.0,221.533456,2
1594660108797409274,233,1594660108799585476,gps_base,0,7,39.5379937,-119.8140667,1354.45,195.1609,0.0,0.0,0.0,195.1609,0.0,0.0,0.0,221.801449,2
1594660109000678974,234,1594660108999585428,gps_base,0,7,39.5379942,-119.8140631,1354.516,195.4404,0.0,0.0,0.0,195.4404,0.0,0.0,0.0,222.636241,2
1594660109197591718,235,1594660109199585377,gps_base,0,7,39.5379929,-119.8140652,1354.656,195.832036,0.0,0.0,0.0,195.832036,0.0,0.0,0.0,223.622116,2
1594660109397510950,236,1594660109399585328,gps_base,0,7,39.5379942,-119.8140611,1354.666,196.224064,0.0,0.0,0.0,196.224064,0.0,0.0,0.0,224.670121,2
1594660109597387593,237,1594660109599585279,gps_base,0,7,39.5379931,-119.8140587,1354.616,196.728676,0.0,0.0,0.0,196.728676,0.0,0.0,0.0,225.810729,2
1594660109797257815,238,1594660109799585230,gps_base,0,7,39.5379913,-119.8140565,1354.535,197.290116,0.0,0.0,0.0,197.290116,0.0,0.0,0.0,226.984356,2
1594660110197598295,239,1594660110199585130,gps_base,0,7,39.5379916,-119.814059,1354.87,198.697216,0.0,0.0,0.0,198.697216,0.0,0.0,0.0,229.5225,2
1594660110397089724,240,1594660110399585081,gps_base,0,7,39.5379922,-119.8140564,1354.914,199.854769,0.0,0.0,0.0,199.854769,0.0,0.0,0.0,230.857636,2
1594660110797366082,241,1594660110799584983,gps_base,0,7,39.5379922,-119.8140525,1354.848,201.242596,0.0,0.0,0.0,201.242596,0.0,0.0,0.0,232.684516,2
1594660111000353853,242,1594660110999584935,gps_base,0,7,39.537992,-119.8140505,1354.878,202.037796,0.0,0.0,0.0,202.037796,0.0,0.0,0.0,234.059401,2
1594660111196832732,243,1594660111199584885,gps_base,0,7,39.5379928,-119.8140493,1355.112,202.635225,0.0,0.0,0.0,202.635225,0.0,0.0,0.0,235.499716,2
1594660111597261713,244,1594660111599584787,gps_base,0,7,39.5379943,-119.8140458,1355.305,204.118369,0.0,0.0,0.0,204.118369,0.0,0.0,0.0,238.362721,2
1594660111797053204,245,1594660111799584737,gps_base,0,7,39.5379949,-119.8140504,1355.411,204.633025,0.0,0.0,0.0,204.633025,0.0,0.0,0.0,239.723289,2
1594660112000652044,246,1594660111999584689,gps_base,0,7,39.5379954,-119.8140472,1355.506,205.148329,0.0,0.0,0.0,205.148329,0.0,0.0,0.0,241.025625,2
1594660112197050655,247,1594660112199584639,gps_base,0,7,39.5379965,-119.8140454,1355.387,205.6356,0.0,0.0,0.0,205.6356,0.0,0.0,0.0,242.331489,2
1594660112597455045,248,1594660112599584542,gps_base,0,7,39.537999,-119.8140447,1355.173,206.583129,0.0,0.0,0.0,206.583129,0.0,0.0,0.0,244.9225,2
1594660112797020193,249,1594660112799584493,gps_base,0,7,39.5379994,-119.8140418,1355.66,206.841924,0.0,0.0,0.0,206.841924,0.0,0.0,0.0,246.207481,2
1594660113000168685,250,1594660112999584445,gps_base,0,7,39.5379992,-119.8140369,1356.078,206.094736,0.0,0.0,0.0,206.094736,0.0,0.0,0.0,247.307076,2
1594660113196954455,251,1594660113199584394,gps_base,0,7,39.5379992,-119.8140384,1356.365,205.205625,0.0,0.0,0.0,205.205625,0.0,0.0,0.0,247.968009,2
1594660113396685989,252,1594660113399584346,gps_base,0,7,39.538,-119.8140326,1356.463,204.318436,0.0,0.0,0.0,204.318436,0.0,0.0,0.0,248.976841,2
1594660113796982238,253,1594660113799584250,gps_base,0,7,39.5380004,-119.8140224,1356.651,201.9241,0.0,0.0,0.0,201.9241,0.0,0.0,0.0,250.367329,2
1594660113999873525,254,1594660113999584203,gps_base,0,7,39.538001,-119.8140195,1356.946,200.618896,0.0,0.0,0.0,200.618896,0.0,0.0,0.0,250.937281,2
1594660114196796306,255,1594660114199584153,gps_base,0,7,39.5380015,-119.8140171,1356.888,199.572129,0.0,0.0,0.0,199.572129,0.0,0.0,0.0,251.5396,2
1594660114396897786,256,1594660114399584104,gps_base,0,7,39.5380026,-119.8140167,1357.378,198.415396,0.0,0.0,0.0,198.415396,0.0,0.0,0.0,251.698225,2
1594660114596879366,257,1594660114599584055,gps_base,0,7,39.5380036,-119.8140137,1357.841,197.458704,0.0,0.0,0.0,197.458704,0.0,0.0,0.0,252.333225,2
1594660114796579877,258,1594660114799584007,gps_base,0,7,39.5380045,-119.8140106,1357.819,196.728676,0.0,0.0,0.0,196.728676,0.0,0.0,0.0,253.032649,2
1594660115000161634,259,1594660114999583959,gps_base,0,7,39.5380051,-119.8140093,1357.924,196.056004,0.0,0.0,0.0,196.056004,0.0,0.0,0.0,253.637476,2
1594660115396771373,260,1594660115399583861,gps_base,0,7,39.5380066,-119.8140053,1358.235,194.3236,0.0,0.0,0.0,194.3236,0.0,0.0,0.0,254.562025,2
1594660115596821385,261,1594660115599583812,gps_base,0,7,39.5380074,-119.8140057,1358.4,193.098816,0.0,0.0,0.0,193.098816,0.0,0.0,0.0,254.051721,2
1594660115796740318,262,1594660115799583764,gps_base,0,7,39.5380083,-119.8140033,1358.747,192.182769,0.0,0.0,0.0,192.182769,0.0,0.0,0.0,253.7649,2
1594660116000001680,263,1594660115999583717,gps_base,0,7,39.5380095,-119.8140006,1358.841,191.324224,0.0,0.0,0.0,191.324224,0.0,0.0,0.0,253.701184,2
1594660116196775092,264,1594660116199583668,gps_base,0,7,39.5380104,-119.8139999,1358.763,190.522809,0.0,0.0,0.0,190.522809,0.0,0.0,0.0,253.637476,2
1594660116396502788,265,1594660116399583621,gps_base,0,7,39.5380109,-119.8139941,1358.638,189.833284,0.0,0.0,0.0,189.833284,0.0,0.0,0.0,253.892356,2
1594660116596424662,266,1594660116599583573,gps_base,0,7,39.538012,-119.8139912,1358.62,189.090001,0.0,0.0,0.0,189.090001,0.0,0.0,0.0,254.179249,2
1594660116796571473,267,1594660116799583526,gps_base,0,7,39.5380122,-119.8139871,1358.422,188.375625,0.0,0.0,0.0,188.375625,0.0,0.0,0.0,254.530116,2
1594660116999961704,268,1594660116999583480,gps_base,0,7,39.5380122,-119.8139841,1358.256,187.717401,0.0,0.0,0.0,187.717401,0.0,0.0,0.0,255.008961,2
1594660117196557792,269,1594660117199583432,gps_base,0,7,39.5380128,-119.8139808,1358.096,187.115041,0.0,0.0,0.0,187.115041,0.0,0.0,0.0,255.584169,2
1594660117397199384,270,1594660117399583384,gps_base,0,7,39.5380135,-119.8139816,1358.161,186.650244,0.0,0.0,0.0,186.650244,0.0,0.0,0.0,256.3201,2
1594660117596876275,271,1594660117599583336,gps_base,0,7,39.5380147,-119.8139825,1358.288,186.431716,0.0,0.0,0.0,186.431716,0.0,0.0,0.0,257.185369,2
1594660117796643917,272,1594660117799583287,gps_base,0,7,39.5380133,-119.8139856,1358.621,186.267904,0.0,0.0,0.0,186.267904,0.0,0.0,0.0,258.212761,2
1594660118000105080,273,1594660117999583239,gps_base,0,7,39.5380112,-119.8139931,1359.081,186.104164,0.0,0.0,0.0,186.104164,0.0,0.0,0.0,259.049025,2
1594660118196620020,274,1594660118199583191,gps_base,0,7,39.5380114,-119.813989,1359.052,185.967769,0.0,0.0,0.0,185.967769,0.0,0.0,0.0,259.660996,2
1594660118396265652,275,1594660118399583144,gps_base,0,7,39.5380113,-119.813987,1358.951,185.531641,0.0,0.0,0.0,185.531641,0.0,0.0,0.0,260.1769,2
1594660118596732562,276,1594660118599583096,gps_base,0,7,39.5380122,-119.8139863,1359.016,185.286544,0.0,0.0,0.0,185.286544,0.0,0.0,0.0,260.919409,2
1594660118796376865,277,1594660118799583048,gps_base,0,7,39.5380122,-119.8139866,1359.232,184.987201,0.0,0.0,0.0,184.987201,0.0,0.0,0.0,261.565929,2
1594660119000043369,278,1594660118999583002,gps_base,0,7,39.5380124,-119.8139832,1359.073,184.715281,0.0,0.0,0.0,184.715281,0.0,0.0,0.0,262.407601,2
1594660119196423716,279,1594660119199582954,gps_base,0,7,39.5380131,-119.8139816,1359.018,184.443561,0.0,0.0,0.0,184.443561,0.0,0.0,0.0,263.218176,2
1594660119596544547,280,1594660119599582860,gps_base,0,7,39.5380145,-119.8139791,1359.038,183.846481,0.0,0.0,0.0,183.846481,0.0,0.0,0.0,264.843076,2
1594660119796864565,281,1594660119799582813,gps_base,0,7,39.5380153,-119.8139773,1359.011,183.575401,0.0,0.0,0.0,183.575401,0.0,0.0,0.0,265.787809,2
1594660119999644318,282,1594660119999582767,gps_base,0,7,39.5380157,-119.8139755,1358.829,183.250369,0.0,0.0,0.0,183.250369,0.0,0.0,0.0,266.6689,2
1594660120196157209,283,1594660120199582719,gps_base,0,7,39.5380164,-119.8139729,1358.645,182.898576,0.0,0.0,0.0,182.898576,0.0,0.0,0.0,267.420609,2
1594660120396501168,284,1594660120399582673,gps_base,0,7,39.5380164,-119.8139705,1358.323,182.331009,0.0,0.0,0.0,182.331009,0.0,0.0,0.0,268.075129,2
1594660120596327650,285,1594660120599582625,gps_base,0,7,39.5380166,-119.813971,1358.657,181.791289,0.0,0.0,0.0,181.791289,0.0,0.0,0.0,268.828816,2
1594660120796352086,286,1594660120799582577,gps_base,0,7,39.5380168,-119.8139696,1358.852,181.360089,0.0,0.0,0.0,181.360089,0.0,0.0,0.0,269.320921,2
1594660121000426482,287,1594660120999582531,gps_base,0,7,39.5380174,-119.8139687,1358.915,181.1716,0.0,0.0,0.0,181.1716,0.0,0.0,0.0,269.912041,2
1594660121596650296,288,1594660121599582389,gps_base,0,7,39.5380175,-119.8139633,1359.095,179.774464,0.0,0.0,0.0,179.774464,0.0,0.0,0.0,271.458576,2
1594660121796568776,289,1594660121799582341,gps_base,0,7,39.5380176,-119.8139616,1359.403,179.345664,0.0,0.0,0.0,179.345664,0.0,0.0,0.0,272.019049,2
1594660121999500888,290,1594660121999582296,gps_base,0,7,39.538018,-119.8139575,1359.281,178.730161,0.0,0.0,0.0,178.730161,0.0,0.0,0.0,272.5801,2
1594660122196484763,291,1594660122199582247,gps_base,0,7,39.5380186,-119.8139567,1359.486,178.329316,0.0,0.0,0.0,178.329316,0.0,0.0,0.0,273.042576,2
1594660122396230137,292,1594660122399582200,gps_base,0,7,39.5380192,-119.8139524,1359.488,177.768889,0.0,0.0,0.0,177.768889,0.0,0.0,0.0,273.703936,2
1594660122596346739,293,1594660122599582153,gps_base,0,7,39.5380195,-119.8139506,1359.594,177.209344,0.0,0.0,0.0,177.209344,0.0,0.0,0.0,274.266721,2
1594660122796400531,294,1594660122799582106,gps_base,0,7,39.5380199,-119.8139478,1359.814,176.677264,0.0,0.0,0.0,176.677264,0.0,0.0,0.0,274.796929,2
1594660122999848498,295,1594660122999582060,gps_base,0,7,39.5380205,-119.8139446,1359.842,176.199076,0.0,0.0,0.0,176.199076,0.0,0.0,0.0,275.029056,2
1594660123396560421,296,1594660123399581964,gps_base,0,7,39.5380216,-119.8139401,1360.154,175.2976,0.0,0.0,0.0,175.2976,0.0,0.0,0.0,275.593201,2
1594660123596535119,297,1594660123599581917,gps_base,0,7,39.5380227,-119.8139388,1360.521,175.059361,0.0,0.0,0.0,175.059361,0.0,0.0,0.0,275.726025,2
1594660123796316205,298,1594660123799581870,gps_base,0,7,39.5380235,-119.8139347,1360.508,174.530521,0.0,0.0,0.0,174.530521,0.0,0.0,0.0,275.2281,2
1594660124000385608,299,1594660123999581825,gps_base,0,7,39.5380237,-119.8139302,1360.48,174.055249,0.0,0.0,0.0,174.055249,0.0,0.0,0.0,274.697476,2
1594660124395943042,300,1594660124399581731,gps_base,0,7,39.5380255,-119.8139241,1360.469,172.948801,0.0,0.0,0.0,172.948801,0.0,0.0,0.0,272.646144,2
1594660124596501220,301,1594660124599581684,gps_base,0,7,39.5380262,-119.8139199,1360.531,172.370641,0.0,0.0,0.0,172.370641,0.0,0.0,0.0,271.392676,2
1594660124796329873,302,1594660124799581638,gps_base,0,7,39.5380269,-119.8139155,1360.594,171.898321,0.0,0.0,0.0,171.898321,0.0,0.0,0.0,270.174969,2
1594660124999627498,303,1594660124999581592,gps_base,0,7,39.5380274,-119.8139117,1360.536,171.400464,0.0,0.0,0.0,171.400464,0.0,0.0,0.0,268.664881,2
1594660125396279325,304,1594660125399581498,gps_base,0,7,39.5380285,-119.8139074,1360.807,170.380809,0.0,0.0,0.0,170.380809,0.0,0.0,0.0,265.853025,2
1594660125596085327,305,1594660125599581451,gps_base,0,7,39.5380294,-119.8139047,1360.707,169.859089,0.0,0.0,0.0,169.859089,0.0,0.0,0.0,264.452644,2
1594660125796481952,306,1594660125799581404,gps_base,0,7,39.5380308,-119.8139037,1361.012,169.364196,0.0,0.0,0.0,169.364196,0.0,0.0,0.0,263.0884,2
1594660125999749198,307,1594660125999581359,gps_base,0,7,39.538032,-119.8139007,1361.148,169.052004,0.0,0.0,0.0,169.052004,0.0,0.0,0.0,261.501241,2
1594660126196195193,308,1594660126199581311,gps_base,0,7,39.5380325,-119.8138976,1361.182,168.792064,0.0,0.0,0.0,168.792064,0.0,0.0,0.0,259.951129,2
1594660126596500406,309,1594660126599581219,gps_base,0,7,39.5380336,-119.8138897,1361.094,167.7025,0.0,0.0,0.0,167.7025,0.0,0.0,0.0,256.288081,2
1594660126796125419,310,1594660126799581174,gps_base,0,7,39.538034,-119.8138853,1361.001,167.417721,0.0,0.0,0.0,167.417721,0.0,0.0,0.0,254.274916,2
1594660126999926831,311,1594660126999581127,gps_base,0,7,39.5380353,-119.8138846,1361.365,167.159041,0.0,0.0,0.0,167.159041,0.0,0.0,0.0,252.460321,2
1594660127196318041,312,1594660127199581081,gps_base,0,7,39.5380359,-119.8138794,1361.251,166.823056,0.0,0.0,0.0,166.823056,0.0,0.0,0.0,250.5889,2
1594660127396040815,313,1594660127399581036,gps_base,0,7,39.5380361,-119.8138752,1360.997,166.900561,0.0,0.0,0.0,166.900561,0.0,0.0,0.0,249.071524,2
1594660127597028541,314,1594660127599580989,gps_base,0,7,39.5380372,-119.8138742,1361.148,167.133184,0.0,0.0,0.0,167.133184,0.0,0.0,0.0,248.440644,2
1594660127796409131,315,1594660127799580942,gps_base,0,7,39.538038,-119.8138738,1361.371,167.288356,0.0,0.0,0.0,167.288356,0.0,0.0,0.0,247.086961,2
1594660128000108428,316,1594660127999580898,gps_base,0,7,39.5380393,-119.8138705,1361.114,167.495364,0.0,0.0,0.0,167.495364,0.0,0.0,0.0,245.8624,2
1594660128196321478,317,1594660128199580851,gps_base,0,7,39.5380405,-119.8138689,1361.248,167.806116,0.0,0.0,0.0,167.806116,0.0,0.0,0.0,244.797316,2
1594660128396317926,318,1594660128399580804,gps_base,0,7,39.5380418,-119.8138693,1361.464,168.039369,0.0,0.0,0.0,168.039369,0.0,0.0,0.0,243.9844,2
1594660128596113117,319,1594660128599580760,gps_base,0,7,39.5380427,-119.8138651,1361.1,168.350625,0.0,0.0,0.0,168.350625,0.0,0.0,0.0,243.422404,2
1594660128795923161,320,1594660128799580714,gps_base,0,7,39.5380437,-119.8138641,1361.167,168.558289,0.0,0.0,0.0,168.558289,0.0,0.0,0.0,243.016921,2
1594660128999960599,321,1594660128999580671,gps_base,0,7,39.538045,-119.8138578,1360.822,168.922009,0.0,0.0,0.0,168.922009,0.0,0.0,0.0,242.861056,2
1594660129395969160,322,1594660129399580578,gps_base,0,7,39.5380482,-119.8138541,1360.828,169.286121,0.0,0.0,0.0,169.286121,0.0,0.0,0.0,242.642929,2
1594660129600843414,323,1594660129599580534,gps_base,0,7,39.5380496,-119.8138473,1360.539,168.818049,0.0,0.0,0.0,168.818049,0.0,0.0,0.0,242.206969,2
1594660129795986772,324,1594660129799580489,gps_base,0,7,39.5380509,-119.8138454,1360.481,168.376576,0.0,0.0,0.0,168.376576,0.0,0.0,0.0,241.833601,2
1594660129999704012,325,1594660129999580445,gps_base,0,7,39.5380522,-119.8138415,1360.362,167.521249,0.0,0.0,0.0,167.521249,0.0,0.0,0.0,241.460521,2
1594660130199352492,326,1594660130199580400,gps_base,0,7,39.5380539,-119.8138356,1360.262,166.771396,0.0,0.0,0.0,166.771396,0.0,0.0,0.0,241.243024,2
1594660130596182252,327,1594660130599580310,gps_base,0,7,39.5380563,-119.8138299,1359.775,164.8656,0.0,0.0,0.0,164.8656,0.0,0.0,0.0,240.8704,2
1594660130795712660,328,1594660130799580267,gps_base,0,7,39.538058,-119.8138192,1359.462,161.213809,0.0,0.0,0.0,161.213809,0.0,0.0,0.0,239.444676,2
1594660130998923093,329,1594660130999580224,gps_base,0,7,39.5380603,-119.8138149,1359.402,158.180929,0.0,0.0,0.0,158.180929,0.0,0.0,0.0,238.548025,2
1594660131196082332,330,1594660131199580178,gps_base,0,7,39.5380622,-119.8138143,1359.388,158.130625,0.0,0.0,0.0,158.130625,0.0,0.0,0.0,239.351841,2
1594660131395827588,331,1594660131399580133,gps_base,0,7,39.5380642,-119.8138119,1359.374,158.105476,0.0,0.0,0.0,158.105476,0.0,0.0,0.0,240.25,2
1594660131595780765,332,1594660131599580088,gps_base,0,7,39.5380664,-119.8138138,1359.346,157.879225,0.0,0.0,0.0,157.879225,0.0,0.0,0.0,240.901441,2
1594660131796619314,333,1594660131799580043,gps_base,0,7,39.5380681,-119.8138163,1359.466,157.628025,0.0,0.0,0.0,157.628025,0.0,0.0,0.0,241.584849,2
1594660131999347958,334,1594660131999579998,gps_base,0,7,39.5380704,-119.8138192,1359.715,154.181889,0.0,0.0,0.0,154.181889,0.0,0.0,0.0,240.715225,2
1594660132195827348,335,1594660132199579952,gps_base,0,7,39.5380718,-119.8138192,1359.725,151.979584,0.0,0.0,0.0,151.979584,0.0,0.0,0.0,240.405025,2
1594660132395966258,336,1594660132399579907,gps_base,0,7,39.5380738,-119.8138242,1359.871,149.940025,0.0,0.0,0.0,149.940025,0.0,0.0,0.0,240.157009,2
1594660132595883466,337,1594660132599579861,gps_base,0,7,39.5380759,-119.8138264,1360.206,148.011556,0.0,0.0,0.0,148.011556,0.0,0.0,0.0,239.878144,2
1594660132795641460,338,1594660132799579816,gps_base,0,7,39.5380768,-119.8138281,1360.22,146.579449,0.0,0.0,0.0,146.579449,0.0,0.0,0.0,239.537529,2
1594660132999236608,339,1594660132999579773,gps_base,0,7,39.5380764,-119.8138298,1359.914,145.636624,0.0,0.0,0.0,145.636624,0.0,0.0,0.0,239.413729,2
1594660133196003411,340,1594660133199579726,gps_base,0,7,39.538076,-119.8138339,1360.3,144.7209,0.0,0.0,0.0,144.7209,0.0,0.0,0.0,239.166225,2
1594660133395634986,341,1594660133399579681,gps_base,0,7,39.5380766,-119.813837,1360.474,143.832049,0.0,0.0,0.0,143.832049,0.0,0.0,0.0,238.826116,2
1594660133596558240,342,1594660133599579636,gps_base,0,7,39.538077,-119.8138403,1360.447,142.922025,0.0,0.0,0.0,142.922025,0.0,0.0,0.0,238.239225,2
1594660133795651465,343,1594660133799579591,gps_base,0,7,39.5380769,-119.8138442,1360.577,141.991056,0.0,0.0,0.0,141.991056,0.0,0.0,0.0,237.406464,2
1594660133998966265,344,1594660133999579548,gps_base,0,7,39.5380769,-119.8138463,1360.494,141.395881,0.0,0.0,0.0,141.395881,0.0,0.0,0.0,236.821321,2
1594660134195905170,345,1594660134199579501,gps_base,0,7,39.5380763,-119.8138528,1360.596,140.754496,0.0,0.0,0.0,140.754496,0.0,0.0,0.0,236.083225,2
1594660134595420583,346,1594660134599579410,gps_base,0,7,39.538076,-119.8138639,1361.127,139.617856,0.0,0.0,0.0,139.617856,0.0,0.0,0.0,234.855625,2
1594660134796118638,347,1594660134799579364,gps_base,0,7,39.5380762,-119.8138704,1361.496,139.051264,0.0,0.0,0.0,139.051264,0.0,0.0,0.0,234.243025,2
1594660134999647840,348,1594660134999579321,gps_base,0,7,39.5380759,-119.8138734,1361.655,138.462289,0.0,0.0,0.0,138.462289,0.0,0.0,0.0,233.417284,2
1594660135196116489,349,1594660135199579274,gps_base,0,7,39.5380759,-119.8138782,1361.753,137.898049,0.0,0.0,0.0,137.898049,0.0,0.0,0.0,232.745536,2
1594660135396450833,350,1594660135399579230,gps_base,0,7,39.5380761,-119.8138814,1361.775,137.334961,0.0,0.0,0.0,137.334961,0.0,0.0,0.0,232.044289,2
1594660135596349681,351,1594660135599579186,gps_base,0,7,39.5380752,-119.8138833,1361.572,136.796416,0.0,0.0,0.0,136.796416,0.0,0.0,0.0,231.283264,2
1594660135796365432,352,1594660135799579141,gps_base,0,7,39.5380749,-119.8138892,1361.713,136.282276,0.0,0.0,0.0,136.282276,0.0,0.0,0.0,230.584225,2
1594660136000154297,353,1594660135999579097,gps_base,0,7,39.538075,-119.8138938,1361.849,135.4896,0.0,0.0,0.0,135.4896,0.0,0.0,0.0,229.643716,2
1594660136196189708,354,1594660136199579051,gps_base,0,7,39.5380742,-119.8138964,1362.008,134.977924,0.0,0.0,0.0,134.977924,0.0,0.0,0.0,228.886641,2
1594660136395804020,355,1594660136399579006,gps_base,0,7,39.5380736,-119.8139015,1362.335,134.189056,0.0,0.0,0.0,134.189056,0.0,0.0,0.0,227.859025,2
1594660136596399963,356,1594660136599578961,gps_base,0,7,39.5380745,-119.8139041,1362.385,133.425601,0.0,0.0,0.0,133.425601,0.0,0.0,0.0,226.833721,2
1594660136795846049,357,1594660136799578918,gps_base,0,7,39.5380739,-119.8139068,1362.351,130.576329,0.0,0.0,0.0,130.576329,0.0,0.0,0.0,224.760064,2
1594660136999567839,358,1594660136999578873,gps_base,0,7,39.5380736,-119.813912,1362.585,128.754409,0.0,0.0,0.0,128.754409,0.0,0.0,0.0,223.263364,2
1594660137196492318,359,1594660137199578828,gps_base,0,7,39.5380733,-119.8139161,1362.565,127.0129,0.0,0.0,0.0,127.0129,0.0,0.0,0.0,221.652544,2
1594660137396120717,360,1594660137399578784,gps_base,0,7,39.5380727,-119.8139186,1362.482,125.350416,0.0,0.0,0.0,125.350416,0.0,0.0,0.0,219.958561,2
1594660137596176784,361,1594660137599578740,gps_base,0,7,39.5380723,-119.8139207,1362.344,124.255609,0.0,0.0,0.0,124.255609,0.0,0.0,0.0,218.655369,2
1594660137796203760,362,1594660137799578696,gps_base,0,7,39.5380725,-119.8139237,1362.433,123.165604,0.0,0.0,0.0,123.165604,0.0,0.0,0.0,217.326564,2
1594660137999356406,363,1594660137999578652,gps_base,0,7,39.5380718,-119.8139304,1362.839,122.124601,0.0,0.0,0.0,122.124601,0.0,0.0,0.0,216.031204,2
1594660138196677972,364,1594660138199578605,gps_base,0,7,39.5380716,-119.8139357,1363.119,121.2201,0.0,0.0,0.0,121.2201,0.0,0.0,0.0,215.091556,2
1594660138396264366,365,1594660138399578561,gps_base,0,7,39.5380715,-119.8139389,1363.133,120.3409,0.0,0.0,0.0,120.3409,0.0,0.0,0.0,214.183225,2
1594660138596223262,366,1594660138599578516,gps_base,0,7,39.5380717,-119.8139431,1363.355,119.443041,0.0,0.0,0.0,119.443041,0.0,0.0,0.0,213.072409,2
1594660138795647619,367,1594660138799578471,gps_base,0,7,39.538071,-119.8139511,1363.617,118.5921,0.0,0.0,0.0,118.5921,0.0,0.0,0.0,212.080969,2
1594660138999302287,368,1594660138999578428,gps_base,0,7,39.5380714,-119.8139557,1363.707,118.113424,0.0,0.0,0.0,118.113424,0.0,0.0,0.0,211.498849,2
1594660139195995552,369,1594660139199578381,gps_base,0,7,39.5380714,-119.8139616,1364.047,117.679104,0.0,0.0,0.0,117.679104,0.0,0.0,0.0,210.946576,2
1594660139596650802,370,1594660139599578292,gps_base,0,7,39.5380718,-119.8139696,1364.343,117.983044,0.0,0.0,0.0,117.983044,0.0,0.0,0.0,210.279001,2
1594660139796510430,371,1594660139799578248,gps_base,0,7,39.5380712,-119.8139741,1364.463,118.1569,0.0,0.0,0.0,118.1569,0.0,0.0,0.0,210.018064,2
1594660139999398089,372,1594660139999578205,gps_base,0,7,39.5380711,-119.8139776,1364.514,118.243876,0.0,0.0,0.0,118.243876,0.0,0.0,0.0,209.844196,2
1594660140396445197,373,1594660140399578115,gps_base,0,7,39.5380701,-119.8139877,1364.867,118.461456,0.0,0.0,0.0,118.461456,0.0,0.0,0.0,209.757289,2
1594660140596033912,374,1594660140599578071,gps_base,0,7,39.5380703,-119.8139917,1364.94,118.570321,0.0,0.0,0.0,118.570321,0.0,0.0,0.0,209.728324,2
1594660140796190961,375,1594660140799578026,gps_base,0,7,39.5380699,-119.8139962,1365.051,118.548544,0.0,0.0,0.0,118.548544,0.0,0.0,0.0,209.496676,2
1594660140999469325,376,1594660140999577983,gps_base,0,7,39.5380699,-119.8139998,1365.316,118.548544,0.0,0.0,0.0,118.548544,0.0,0.0,0.0,209.409841,2
1594660141195785582,377,1594660141199577938,gps_base,0,7,39.5380693,-119.8140041,1365.216,118.396161,0.0,0.0,0.0,118.396161,0.0,0.0,0.0,209.467729,2
1594660141395799757,378,1594660141399577895,gps_base,0,7,39.5380692,-119.8140086,1365.218,118.265625,0.0,0.0,0.0,118.265625,0.0,0.0,0.0,209.6704,2
1594660141595856223,379,1594660141599577852,gps_base,0,7,39.5380687,-119.8140106,1365.063,118.135161,0.0,0.0,0.0,118.135161,0.0,0.0,0.0,209.873169,2
1594660141795549758,380,1594660141799577808,gps_base,0,7,39.538068,-119.8140156,1365.174,118.004769,0.0,0.0,0.0,118.004769,0.0,0.0,0.0,210.105025,2
1594660141999574519,381,1594660141999577764,gps_base,0,7,39.5380682,-119.8140206,1365.396,117.896164,0.0,0.0,0.0,117.896164,0.0,0.0,0.0,210.337009,2
1594660142196436222,382,1594660142199577720,gps_base,0,7,39.5380682,-119.814023,1365.392,117.787609,0.0,0.0,0.0,117.787609,0.0,0.0,0.0,210.453049,2
1594660142395738611,383,1594660142399577676,gps_base,0,7,39.5380679,-119.8140257,1365.4,117.700801,0.0,0.0,0.0,117.700801,0.0,0.0,0.0,210.656196,2
1594660142595936020,384,1594660142599577633,gps_base,0,7,39.5380692,-119.8140271,1365.471,117.462244,0.0,0.0,0.0,117.462244,0.0,0.0,0.0,210.772324,2
1594660142796142003,385,1594660142799577589,gps_base,0,7,39.5380701,-119.8140275,1365.687,117.375556,0.0,0.0,0.0,117.375556,0.0,0.0,0.0,210.859441,2
1594660142999228833,386,1594660142999577546,gps_base,0,7,39.5380697,-119.8140321,1366.039,117.418896,0.0,0.0,0.0,117.418896,0.0,0.0,0.0,210.917529,2
1594660143196010911,387,1594660143199577501,gps_base,0,7,39.538069,-119.8140391,1366.237,117.5056,0.0,0.0,0.0,117.5056,0.0,0.0,0.0,211.033729,2
1594660143395460302,388,1594660143399577456,gps_base,0,7,39.5380675,-119.8140451,1366.508,117.2889,0.0,0.0,0.0,117.2889,0.0,0.0,0.0,210.627169,2
1594660143595121359,389,1594660143599577413,gps_base,0,7,39.5380663,-119.8140495,1366.628,117.245584,0.0,0.0,0.0,117.245584,0.0,0.0,0.0,210.511081,2
1594660143795775318,390,1594660143799577369,gps_base,0,7,39.5380647,-119.8140552,1366.919,117.267241,0.0,0.0,0.0,117.267241,0.0,0.0,0.0,210.25,2
1594660143999021322,391,1594660143999577326,gps_base,0,7,39.5380635,-119.8140596,1367.193,117.310561,0.0,0.0,0.0,117.310561,0.0,0.0,0.0,210.018064,2
1594660144195693561,392,1594660144199577281,gps_base,0,7,39.538063,-119.8140634,1367.379,117.483921,0.0,0.0,0.0,117.483921,0.0,0.0,0.0,209.786256,2
1594660144796472548,393,1594660144799577149,gps_base,0,7,39.5380607,-119.8140783,1368.455,118.330884,0.0,0.0,0.0,118.330884,0.0,0.0,0.0,209.323024,2
1594660144999423904,394,1594660144999577107,gps_base,0,7,39.5380605,-119.8140813,1368.639,118.679236,0.0,0.0,0.0,118.679236,0.0,0.0,0.0,209.3809,2
1594660145195421262,395,1594660145199577063,gps_base,0,7,39.53806,-119.8140838,1368.825,119.115396,0.0,0.0,0.0,119.115396,0.0,0.0,0.0,209.409841,2
1594660145395351516,396,1594660145399577021,gps_base,0,7,39.538059,-119.8140872,1368.454,119.508624,0.0,0.0,0.0,119.508624,0.0,0.0,0.0,209.438784,2
1594660145595888464,397,1594660145599576978,gps_base,0,7,39.5380587,-119.8140909,1368.387,119.858704,0.0,0.0,0.0,119.858704,0.0,0.0,0.0,209.6704,2
1594660145795795542,398,1594660145799576936,gps_base,0,7,39.5380596,-119.8140931,1368.462,120.165444,0.0,0.0,0.0,120.165444,0.0,0.0,0.0,209.873169,2
1594660145998764907,399,1594660145999576894,gps_base,0,7,39.5380602,-119.814094,1368.456,120.516484,0.0,0.0,0.0,120.516484,0.0,0.0,0.0,210.221001,2
1594660146195322224,400,1594660146199576851,gps_base,0,7,39.5380602,-119.8140972,1368.325,120.934009,0.0,0.0,0.0,120.934009,0.0,0.0,0.0,210.685225,2
1594660146395063674,401,1594660146399576808,gps_base,0,7,39.5380611,-119.8140989,1368.555,121.374289,0.0,0.0,0.0,121.374289,0.0,0.0,0.0,211.353444,2
1594660146795146449,402,1594660146799576721,gps_base,0,7,39.5380634,-119.8141022,1369.028,122.567041,0.0,0.0,0.0,122.567041,0.0,0.0,0.0,212.488929,2
1594660146998317044,403,1594660146999576680,gps_base,0,7,39.5380648,-119.8141013,1369.052,123.298816,0.0,0.0,0.0,123.298816,0.0,0.0,0.0,213.072409,2
1594660147395111069,404,1594660147399576594,gps_base,0,7,39.5380672,-119.8141032,1369.346,125.014761,0.0,0.0,0.0,125.014761,0.0,0.0,0.0,214.6225,2
1594660147594641307,405,1594660147599576551,gps_base,0,7,39.5380674,-119.8141036,1369.559,125.978176,0.0,0.0,0.0,125.978176,0.0,0.0,0.0,215.414329,2
1594660147794872548,406,1594660147799576508,gps_base,0,7,39.5380681,-119.8141058,1369.82,126.990361,0.0,0.0,0.0,126.990361,0.0,0.0,0.0,216.09,2
1594660148195031422,407,1594660148199576422,gps_base,0,7,39.5380674,-119.8141128,1370.278,129.345129,0.0,0.0,0.0,129.345129,0.0,0.0,0.0,217.326564,2
1594660148395196594,408,1594660148399576379,gps_base,0,7,39.5380666,-119.8141167,1370.693,130.096836,0.0,0.0,0.0,130.096836,0.0,0.0,0.0,217.916644,2
1594660148795413849,409,1594660148799576293,gps_base,0,7,39.5380631,-119.814131,1371.106,131.423296,0.0,0.0,0.0,131.423296,0.0,0.0,0.0,219.217636,2
1594660148998488978,410,1594660148999576251,gps_base,0,7,39.538063,-119.8141354,1371.394,132.204004,0.0,0.0,0.0,132.204004,0.0,0.0,0.0,220.136569,2
1594660149195226117,411,1594660149199576207,gps_base,0,7,39.5380649,-119.8141356,1371.657,133.194681,0.0,0.0,0.0,133.194681,0.0,0.0,0.0,221.057424,2
1594660149394511310,412,1594660149399576164,gps_base,0,7,39.5380658,-119.8141379,1372.088,133.841761,0.0,0.0,0.0,133.841761,0.0,0.0,0.0,221.831236,2
1594660149594455510,413,1594660149599576122,gps_base,0,7,39.5380655,-119.8141414,1372.299,134.606404,0.0,0.0,0.0,134.606404,0.0,0.0,0.0,222.636241,2
1594660149794464091,414,1594660149799576079,gps_base,0,7,39.5380653,-119.8141454,1372.631,135.419769,0.0,0.0,0.0,135.419769,0.0,0.0,0.0,223.681936,2
1594660149998045021,415,1594660149999576037,gps_base,0,7,39.5380658,-119.8141481,1372.967,136.328976,0.0,0.0,0.0,136.328976,0.0,0.0,0.0,224.790049,2
1594660150194234867,416,1594660150199575994,gps_base,0,7,39.538067,-119.8141463,1373.138,137.241225,0.0,0.0,0.0,137.241225,0.0,0.0,0.0,225.840784,2
1594660150394599062,417,1594660150399575951,gps_base,0,7,39.5380659,-119.81415,1373.292,138.274081,0.0,0.0,0.0,138.274081,0.0,0.0,0.0,226.863844,2
1594660150594293851,418,1594660150599575909,gps_base,0,7,39.5380663,-119.814152,1373.468,139.027681,0.0,0.0,0.0,139.027681,0.0,0.0,0.0,227.889216,2
1594660150794435335,419,1594660150799575867,gps_base,0,7,39.5380656,-119.8141532,1373.383,139.830625,0.0,0.0,0.0,139.830625,0.0,0.0,0.0,229.2196,2
1594660150997886814,420,1594660150999575827,gps_base,0,7,39.5380654,-119.8141571,1373.346,140.398801,0.0,0.0,0.0,140.398801,0.0,0.0,0.0,230.523489,2
1594660151194572768,421,1594660151199575784,gps_base,0,7,39.5380648,-119.8141606,1373.17,141.063129,0.0,0.0,0.0,141.063129,0.0,0.0,0.0,231.678841,2
1594660151394139235,422,1594660151399575743,gps_base,0,7,39.5380667,-119.8141576,1372.895,142.0864,0.0,0.0,0.0,142.0864,0.0,0.0,0.0,232.806564,2
1594660151794085846,423,1594660151799575656,gps_base,0,7,39.5380654,-119.8141681,1373.824,143.448529,0.0,0.0,0.0,143.448529,0.0,0.0,0.0,235.039561,2
1594660151997731512,424,1594660151999575614,gps_base,0,7,39.5380635,-119.8141741,1374.212,143.856036,0.0,0.0,0.0,143.856036,0.0,0.0,0.0,236.083225,2
1594660152194106459,425,1594660152199575571,gps_base,0,7,39.5380644,-119.8141749,1374.24,144.456361,0.0,0.0,0.0,144.456361,0.0,0.0,0.0,237.190801,2
1594660152393785665,426,1594660152399575529,gps_base,0,7,39.5380646,-119.8141756,1374.289,144.865296,0.0,0.0,0.0,144.865296,0.0,0.0,0.0,238.270096,2
1594660152593797667,427,1594660152599575487,gps_base,0,7,39.5380656,-119.8141756,1374.566,145.298916,0.0,0.0,0.0,145.298916,0.0,0.0,0.0,239.289961,2
1594660152794003719,428,1594660152799575444,gps_base,0,7,39.5380643,-119.8141802,1374.843,145.419481,0.0,0.0,0.0,145.419481,0.0,0.0,0.0,240.281001,2
1594660152997305064,429,1594660152999575401,gps_base,0,7,39.5380626,-119.8141881,1375.262,145.419481,0.0,0.0,0.0,145.419481,0.0,0.0,0.0,241.211961,2
1594660153193899508,430,1594660153199575358,gps_base,0,7,39.5380618,-119.8141898,1375.323,145.274809,0.0,0.0,0.0,145.274809,0.0,0.0,0.0,242.144721,2
1594660153393932930,431,1594660153399575315,gps_base,0,7,39.5380602,-119.8141973,1375.783,145.298916,0.0,0.0,0.0,145.298916,0.0,0.0,0.0,243.328801,2
1594660153597872750,432,1594660153599575272,gps_base,0,7,39.53806,-119.8142007,1376.145,145.347136,0.0,0.0,0.0,145.347136,0.0,0.0,0.0,244.515769,2
1594660153793933081,433,1594660153799575230,gps_base,0,7,39.5380604,-119.8142025,1376.298,145.323025,0.0,0.0,0.0,145.323025,0.0,0.0,0.0,245.642929,2
1594660153997760466,434,1594660153999575188,gps_base,0,7,39.5380601,-119.8142061,1376.625,145.323025,0.0,0.0,0.0,145.323025,0.0,0.0,0.0,246.741264,2
1594660154193927655,435,1594660154199575145,gps_base,0,7,39.5380601,-119.8142099,1376.604,145.298916,0.0,0.0,0.0,145.298916,0.0,0.0,0.0,247.873536,2
1594660154393745065,436,1594660154399575102,gps_base,0,7,39.5380586,-119.8142148,1376.78,145.178401,0.0,0.0,0.0,145.178401,0.0,0.0,0.0,249.0084,2
1594660154593810572,437,1594660154599575060,gps_base,0,7,39.5380586,-119.8142178,1376.909,145.106116,0.0,0.0,0.0,145.106116,0.0,0.0,0.0,250.114225,2
1594660154793858687,438,1594660154799575018,gps_base,0,7,39.538058,-119.8142218,1376.947,144.937521,0.0,0.0,0.0,144.937521,0.0,0.0,0.0,251.032336,2
1594660154997566547,439,1594660154999574977,gps_base,0,7,39.5380566,-119.8142258,1376.95,143.952004,0.0,0.0,0.0,143.952004,0.0,0.0,0.0,251.8569,2
1594660155194003462,440,1594660155199574935,gps_base,0,7,39.5380578,-119.8142259,1376.931,143.089444,0.0,0.0,0.0,143.089444,0.0,0.0,0.0,252.682816,2
1594660155593515058,441,1594660155599574850,gps_base,0,7,39.5380569,-119.8142331,1377.304,141.943396,0.0,0.0,0.0,141.943396,0.0,0.0,0.0,254.4025,2
1594660156193366102,442,1594660156199574723,gps_base,0,7,39.5380558,-119.8142465,1377.996,141.443449,0.0,0.0,0.0,141.443449,0.0,0.0,0.0,258.052096,2
1594660156393580583,443,1594660156399574681,gps_base,0,7,39.5380556,-119.8142487,1378.119,141.871921,0.0,0.0,0.0,141.871921,0.0,0.0,0.0,259.564321,2
1594660156593481336,444,1594660156599574638,gps_base,0,7,39.5380556,-119.8142539,1378.343,142.468096,0.0,0.0,0.0,142.468096,0.0,0.0,0.0,261.1456,2
1594660156793489523,445,1594660156799574596,gps_base,0,7,39.5380547,-119.8142556,1378.392,143.0416,0.0,0.0,0.0,143.0416,0.0,0.0,0.0,262.731681,2
1594660156997289638,446,1594660156999574556,gps_base,0,7,39.5380546,-119.8142577,1378.43,143.808064,0.0,0.0,0.0,143.808064,0.0,0.0,0.0,264.680361,2
1594660157193687173,447,1594660157199574513,gps_base,0,7,39.5380531,-119.8142594,1378.554,144.552529,0.0,0.0,0.0,144.552529,0.0,0.0,0.0,266.734224,2
1594660157393341496,448,1594660157399574470,gps_base,0,7,39.5380509,-119.8142609,1378.728,145.2025,0.0,0.0,0.0,145.2025,0.0,0.0,0.0,268.730449,2
1594660157593905572,449,1594660157599574427,gps_base,0,7,39.5380498,-119.8142665,1379.024,145.829776,0.0,0.0,0.0,145.829776,0.0,0.0,0.0,270.865764,2
1594660157793747279,450,1594660157799574385,gps_base,0,7,39.5380501,-119.8142706,1379.209,146.579449,0.0,0.0,0.0,146.579449,0.0,0.0,0.0,273.042576,2
1594660157996718189,451,1594660157999574344,gps_base,0,7,39.5380513,-119.8142718,1379.356,147.282496,0.0,0.0,0.0,147.282496,0.0,0.0,0.0,275.062225,2
1594660158193675267,452,1594660158199574301,gps_base,0,7,39.5380516,-119.8142776,1379.549,148.133241,0.0,0.0,0.0,148.133241,0.0,0.0,0.0,277.155904,2
1594660158393343770,453,1594660158399574258,gps_base,0,7,39.5380514,-119.8142814,1379.555,148.962025,0.0,0.0,0.0,148.962025,0.0,0.0,0.0,279.290944,2
1594660158593244811,454,1594660158599574216,gps_base,0,7,39.5380521,-119.8142849,1379.544,149.768644,0.0,0.0,0.0,149.768644,0.0,0.0,0.0,281.299984,2
1594660158793836799,455,1594660158799574174,gps_base,0,7,39.5380541,-119.8142903,1379.805,150.651076,0.0,0.0,0.0,150.651076,0.0,0.0,0.0,283.450896,2
1594660158996811101,456,1594660158999574133,gps_base,0,7,39.5380562,-119.8142906,1379.903,151.560721,0.0,0.0,0.0,151.560721,0.0,0.0,0.0,285.643801,2
1594660159393440235,457,1594660159399574048,gps_base,0,7,39.5380608,-119.814293,1380.155,154.0081,0.0,0.0,0.0,154.0081,0.0,0.0,0.0,290.259369,2
1594660159593250989,458,1594660159599574006,gps_base,0,7,39.5380628,-119.8142955,1380.189,155.127025,0.0,0.0,0.0,155.127025,0.0,0.0,0.0,292.615236,2
1594660159793106028,459,1594660159799573964,gps_base,0,7,39.5380651,-119.8142961,1380.177,155.875225,0.0,0.0,0.0,155.875225,0.0,0.0,0.0,294.911929,2
1594660159996867233,460,1594660159999573923,gps_base,0,7,39.5380684,-119.8142977,1380.418,155.475961,0.0,0.0,0.0,155.475961,0.0,0.0,0.0,297.183121,2
1594660160193495185,461,1594660160199573879,gps_base,0,7,39.538068,-119.8143015,1380.685,154.977601,0.0,0.0,0.0,154.977601,0.0,0.0,0.0,299.463025,2
1594660160393254314,462,1594660160399573836,gps_base,0,7,39.5380703,-119.8143023,1381.049,153.586449,0.0,0.0,0.0,153.586449,0.0,0.0,0.0,301.7169,2
1594660160593345433,463,1594660160599573793,gps_base,0,7,39.5380679,-119.8143018,1381.141,152.349649,0.0,0.0,0.0,152.349649,0.0,0.0,0.0,303.979225,2
1594660160793290386,464,1594660160799573751,gps_base,0,7,39.5380693,-119.8143,1381.242,151.388416,0.0,0.0,0.0,151.388416,0.0,0.0,0.0,306.215001,2
1594660160996624872,465,1594660160999573710,gps_base,0,7,39.5380698,-119.8143002,1381.415,151.486864,0.0,0.0,0.0,151.486864,0.0,0.0,0.0,308.458969,2
1594660161193384238,466,1594660161199573666,gps_base,0,7,39.5380687,-119.8142996,1381.627,151.905625,0.0,0.0,0.0,151.905625,0.0,0.0,0.0,310.781641,2
1594660161393196857,467,1594660161399573623,gps_base,0,7,39.5380705,-119.814299,1382.0,152.819044,0.0,0.0,0.0,152.819044,0.0,0.0,0.0,313.183809,2
1594660161592944298,468,1594660161599573581,gps_base,0,7,39.5380706,-119.8142982,1382.106,153.611236,0.0,0.0,0.0,153.611236,0.0,0.0,0.0,315.453121,2
1594660161793229000,469,1594660161799573538,gps_base,0,7,39.5380715,-119.8142953,1382.728,154.2564,0.0,0.0,0.0,154.2564,0.0,0.0,0.0,316.4841,2
1594660161996379113,470,1594660161999573495,gps_base,0,7,39.5380719,-119.8142972,1383.133,155.351296,0.0,0.0,0.0,155.351296,0.0,0.0,0.0,316.911204,2
1594660162193199855,471,1594660162199573452,gps_base,0,7,39.5380718,-119.8142944,1383.223,156.075049,0.0,0.0,0.0,156.075049,0.0,0.0,0.0,317.374225,2
1594660162392982919,472,1594660162399573408,gps_base,0,7,39.5380717,-119.8142926,1383.801,156.850576,0.0,0.0,0.0,156.850576,0.0,0.0,0.0,318.051556,2
1594660162593082499,473,1594660162599573365,gps_base,0,7,39.5380726,-119.8142932,1384.191,157.628025,0.0,0.0,0.0,157.628025,0.0,0.0,0.0,318.943881,2
1594660162792829894,474,1594660162799573322,gps_base,0,7,39.5380737,-119.814293,1384.603,157.979761,0.0,0.0,0.0,157.979761,0.0,0.0,0.0,319.765924,2
1594660162996716300,475,1594660162999573280,gps_base,0,7,39.5380745,-119.8142908,1385.123,158.407396,0.0,0.0,0.0,158.407396,0.0,0.0,0.0,320.696464,2
1594660163193026578,476,1594660163199573236,gps_base,0,7,39.5380754,-119.8142919,1385.379,158.986881,0.0,0.0,0.0,158.986881,0.0,0.0,0.0,321.8436,2
1594660163392845495,477,1594660163399573193,gps_base,0,7,39.5380774,-119.8142952,1385.624,159.719044,0.0,0.0,0.0,159.719044,0.0,0.0,0.0,322.992784,2
1594660163593144408,478,1594660163599573150,gps_base,0,7,39.5380773,-119.8142947,1385.856,160.554241,0.0,0.0,0.0,160.554241,0.0,0.0,0.0,324.0,2
1594660163996362606,479,1594660163999573066,gps_base,0,7,39.5380767,-119.8142918,1386.245,162.945225,0.0,0.0,0.0,162.945225,0.0,0.0,0.0,327.935881,2
1594660164193616916,480,1594660164199573023,gps_base,0,7,39.5380783,-119.8142913,1386.355,164.121721,0.0,0.0,0.0,164.121721,0.0,0.0,0.0,329.858244,2
1594660164593014888,481,1594660164599572939,gps_base,0,7,39.5380756,-119.8142845,1386.504,166.513216,0.0,0.0,0.0,166.513216,0.0,0.0,0.0,333.683289,2
1594660164793515451,482,1594660164799572896,gps_base,0,7,39.538076,-119.8142835,1386.643,167.7025,0.0,0.0,0.0,167.7025,0.0,0.0,0.0,335.549124,2
1594660164996976443,483,1594660164999572855,gps_base,0,7,39.5380737,-119.8142861,1386.78,168.948004,0.0,0.0,0.0,168.948004,0.0,0.0,0.0,337.493641,2
1594660165193431613,484,1594660165199572811,gps_base,0,7,39.5380723,-119.8142849,1386.86,170.3025,0.0,0.0,0.0,170.3025,0.0,0.0,0.0,339.480625,2
1594660165393601076,485,1594660165399572769,gps_base,0,7,39.5380712,-119.8142842,1387.04,171.688609,0.0,0.0,0.0,171.688609,0.0,0.0,0.0,341.5104,2
1594660165593100976,486,1594660165599572725,gps_base,0,7,39.5380705,-119.8142868,1387.451,173.080336,0.0,0.0,0.0,173.080336,0.0,0.0,0.0,343.397961,2
1594660165793058288,487,1594660165799572683,gps_base,0,7,39.5380703,-119.814283,1387.671,174.398436,0.0,0.0,0.0,174.398436,0.0,0.0,0.0,345.253561,2
1594660165997072283,488,1594660165999572642,gps_base,0,7,39.5380702,-119.8142826,1387.714,175.748049,0.0,0.0,0.0,175.748049,0.0,0.0,0.0,347.0769,2
1594660166393531489,489,1594660166399572556,gps_base,0,7,39.538069,-119.8142784,1387.775,178.008964,0.0,0.0,0.0,178.008964,0.0,0.0,0.0,350.0641,2
1594660166592928041,490,1594660166599572514,gps_base,0,7,39.5380694,-119.8142802,1387.939,178.730161,0.0,0.0,0.0,178.730161,0.0,0.0,0.0,351.337536,2
1594660166792862746,491,1594660166799572473,gps_base,0,7,39.5380696,-119.8142769,1387.619,178.810384,0.0,0.0,0.0,178.810384,0.0,0.0,0.0,351.300049,2
1594660166996361129,492,1594660166999572431,gps_base,0,7,39.5380703,-119.8142739,1388.065,178.703424,0.0,0.0,0.0,178.703424,0.0,0.0,0.0,351.900081,2
1594660167193658284,493,1594660167199572388,gps_base,0,7,39.5380698,-119.8142711,1388.142,178.649956,0.0,0.0,0.0,178.649956,0.0,0.0,0.0,352.613284,2
1594660167392731238,494,1594660167399572346,gps_base,0,7,39.5380687,-119.8142652,1388.14,178.623225,0.0,0.0,0.0,178.623225,0.0,0.0,0.0,353.0641,2
1594660167996436160,495,1594660167999572221,gps_base,0,7,39.5380689,-119.8142582,1388.376,178.863876,0.0,0.0,0.0,178.863876,0.0,0.0,0.0,355.020964,2
1594660168193377260,496,1594660168199572178,gps_base,0,7,39.5380688,-119.8142554,1388.491,178.970884,0.0,0.0,0.0,178.970884,0.0,0.0,0.0,355.850496,2
1594660168393338758,497,1594660168399572135,gps_base,0,7,39.5380687,-119.8142549,1388.679,178.970884,0.0,0.0,0.0,178.970884,0.0,0.0,0.0,356.567689,2
1594660168593030555,498,1594660168599572092,gps_base,0,7,39.5380688,-119.8142535,1388.975,178.703424,0.0,0.0,0.0,178.703424,0.0,0.0,0.0,355.586449,2
1594660168792683402,499,1594660168799572050,gps_base,0,7,39.5380685,-119.8142489,1389.05,178.970884,0.0,0.0,0.0,178.970884,0.0,0.0,0.0,356.4544,2
1594660168996757873,500,1594660168999572010,gps_base,0,7,39.5380684,-119.8142453,1388.753,179.372449,0.0,0.0,0.0,179.372449,0.0,0.0,0.0,358.117776,2
1594660169192631222,501,1594660169199571968,gps_base,0,7,39.5380691,-119.814242,1388.46,179.613604,0.0,0.0,0.0,179.613604,0.0,0.0,0.0,359.822961,2
1594660169392462011,502,1594660169399571928,gps_base,0,7,39.5380685,-119.8142378,1388.024,180.015889,0.0,0.0,0.0,180.015889,0.0,0.0,0.0,361.3801,2
1594660169592623278,503,1594660169599571885,gps_base,0,7,39.538067,-119.8142398,1388.12,180.499225,0.0,0.0,0.0,180.499225,0.0,0.0,0.0,363.131136,2
1594660169792386203,504,1594660169799571843,gps_base,0,7,39.5380668,-119.8142384,1388.277,181.063936,0.0,0.0,0.0,181.063936,0.0,0.0,0.0,364.504464,2
1594660169995850475,505,1594660169999571803,gps_base,0,7,39.5380678,-119.8142321,1388.153,181.656484,0.0,0.0,0.0,181.656484,0.0,0.0,0.0,365.9569,2
1594660170192655844,506,1594660170199571759,gps_base,0,7,39.5380668,-119.8142338,1388.257,182.25,0.0,0.0,0.0,182.25,0.0,0.0,0.0,367.373889,2
1594660170592364651,507,1594660170599571677,gps_base,0,7,39.5380674,-119.8142254,1387.906,183.0609,0.0,0.0,0.0,183.0609,0.0,0.0,0.0,370.023696,2
1594660170996167684,508,1594660170999571596,gps_base,0,7,39.538073,-119.8142066,1387.553,183.710916,0.0,0.0,0.0,183.710916,0.0,0.0,0.0,372.219849,2
1594660171192861844,509,1594660171199571555,gps_base,0,7,39.5380747,-119.814198,1387.311,184.579396,0.0,0.0,0.0,184.579396,0.0,0.0,0.0,373.146489,2
1594660171592492290,510,1594660171599571474,gps_base,0,7,39.5380763,-119.8141883,1386.457,186.513649,0.0,0.0,0.0,186.513649,0.0,0.0,0.0,375.933321,2
1594660171792620084,511,1594660171799571432,gps_base,0,7,39.5380767,-119.8141851,1386.278,187.470864,0.0,0.0,0.0,187.470864,0.0,0.0,0.0,377.447184,2
1594660171996106061,512,1594660171999571391,gps_base,0,7,39.5380776,-119.814181,1386.485,188.348176,0.0,0.0,0.0,188.348176,0.0,0.0,0.0,378.497025,2
1594660172192456644,513,1594660172199571349,gps_base,0,7,39.5380783,-119.8141764,1386.249,188.815081,0.0,0.0,0.0,188.815081,0.0,0.0,0.0,378.263601,2
1594660172592204919,514,1594660172599571265,gps_base,0,7,39.5380803,-119.8141683,1386.455,190.633249,0.0,0.0,0.0,190.633249,0.0,0.0,0.0,378.964089,2
1594660172792173928,515,1594660172799571223,gps_base,0,7,39.5380816,-119.8141638,1386.529,191.5456,0.0,0.0,0.0,191.5456,0.0,0.0,0.0,378.847296,2
1594660172996160670,516,1594660172999571183,gps_base,0,7,39.5380817,-119.8141593,1386.206,192.598884,0.0,0.0,0.0,192.598884,0.0,0.0,0.0,379.003024,2
1594660173192443656,517,1594660173199571143,gps_base,0,7,39.5380807,-119.8141532,1385.239,193.655056,0.0,0.0,0.0,193.655056,0.0,0.0,0.0,379.353529,2
1594660173392279017,518,1594660173399571101,gps_base,0,7,39.5380819,-119.8141495,1385.161,194.574601,0.0,0.0,0.0,194.574601,0.0,0.0,0.0,379.314576,2
1594660173592343536,519,1594660173599571059,gps_base,0,7,39.5380821,-119.814146,1385.307,195.664144,0.0,0.0,0.0,195.664144,0.0,0.0,0.0,379.743169,2
1594660173792342251,520,1594660173799571018,gps_base,0,7,39.5380817,-119.814146,1385.062,196.672576,0.0,0.0,0.0,196.672576,0.0,0.0,0.0,380.133009,2
1594660173995764607,521,1594660173999570978,gps_base,0,7,39.538082,-119.8141427,1384.79,197.514916,0.0,0.0,0.0,197.514916,0.0,0.0,0.0,379.977049,2
1594660174192125088,522,1594660174199570937,gps_base,0,7,39.5380822,-119.8141364,1383.951,198.387225,0.0,0.0,0.0,198.387225,0.0,0.0,0.0,379.8601,2
1594660174392434236,523,1594660174399570896,gps_base,0,7,39.5380835,-119.8141305,1383.6,199.261456,0.0,0.0,0.0,199.261456,0.0,0.0,0.0,379.8601,2
1594660174592151826,524,1594660174599570855,gps_base,0,7,39.5380842,-119.8141269,1383.42,200.081025,0.0,0.0,0.0,200.081025,0.0,0.0,0.0,379.665225,2
1594660174791958524,525,1594660174799570813,gps_base,0,7,39.5380849,-119.8141229,1383.547,200.675556,0.0,0.0,0.0,200.675556,0.0,0.0,0.0,379.704196,2
1594660174995976433,526,1594660174999570772,gps_base,0,7,39.5380856,-119.8141186,1383.556,201.0724,0.0,0.0,0.0,201.0724,0.0,0.0,0.0,379.821121,2
1594660175192161593,527,1594660175199570728,gps_base,0,7,39.5380865,-119.8141159,1383.738,201.498025,0.0,0.0,0.0,201.498025,0.0,0.0,0.0,379.8601,2
1594660175592176765,528,1594660175599570643,gps_base,0,7,39.5380878,-119.8141081,1384.331,201.725209,0.0,0.0,0.0,201.725209,0.0,0.0,0.0,379.353529,2
1594660175792883305,529,1594660175799570600,gps_base,0,7,39.5380882,-119.8141063,1384.792,201.668401,0.0,0.0,0.0,201.668401,0.0,0.0,0.0,378.6916,2
1594660175995698252,530,1594660175999570559,gps_base,0,7,39.5380863,-119.8141064,1384.516,201.782025,0.0,0.0,0.0,201.782025,0.0,0.0,0.0,378.808369,2
1594660176192323810,531,1594660176199570517,gps_base,0,7,39.5380874,-119.8141016,1384.267,201.810436,0.0,0.0,0.0,201.810436,0.0,0.0,0.0,378.497025,2
1594660176391949256,532,1594660176399570475,gps_base,0,7,39.5380881,-119.8141001,1384.385,201.753616,0.0,0.0,0.0,201.753616,0.0,0.0,0.0,378.263601,2
1594660176591869600,533,1594660176599570432,gps_base,0,7,39.538088,-119.8140973,1384.561,201.554809,0.0,0.0,0.0,201.554809,0.0,0.0,0.0,377.486041,2
1594660176792475161,534,1594660176799570391,gps_base,0,7,39.5380892,-119.8140932,1384.198,201.327721,0.0,0.0,0.0,201.327721,0.0,0.0,0.0,376.786921,2
1594660176995396036,535,1594660176999570349,gps_base,0,7,39.5380894,-119.8140927,1384.595,201.185856,0.0,0.0,0.0,201.185856,0.0,0.0,0.0,376.243609,2
1594660177192122562,536,1594660177199570306,gps_base,0,7,39.5380897,-119.8140901,1384.538,201.015684,0.0,0.0,0.0,201.015684,0.0,0.0,0.0,375.623161,2
1594660177392407083,537,1594660177399570264,gps_base,0,7,39.5380902,-119.8140882,1384.634,200.902276,0.0,0.0,0.0,200.902276,0.0,0.0,0.0,375.390625,2
1594660177995768671,538,1594660177999570137,gps_base,0,7,39.5380915,-119.8140844,1385.204,199.346161,0.0,0.0,0.0,199.346161,0.0,0.0,0.0,373.301041,2
1594660178191925645,539,1594660178199570093,gps_base,0,7,39.5380923,-119.8140837,1385.763,199.063881,0.0,0.0,0.0,199.063881,0.0,0.0,0.0,372.991969,2
1594660178391764966,540,1594660178399570052,gps_base,0,7,39.538093,-119.8140781,1385.551,198.81,0.0,0.0,0.0,198.81,0.0,0.0,0.0,372.528601,2
1594660178592046758,541,1594660178599570009,gps_base,0,7,39.5380931,-119.8140783,1385.872,198.499921,0.0,0.0,0.0,198.499921,0.0,0.0,0.0,372.065521,2
1594660178791730066,542,1594660178799569967,gps_base,0,7,39.5380933,-119.8140766,1386.127,197.936761,0.0,0.0,0.0,197.936761,0.0,0.0,0.0,371.525625,2
1594660178995186306,543,1594660178999569926,gps_base,0,7,39.5380937,-119.8140728,1386.126,197.543025,0.0,0.0,0.0,197.543025,0.0,0.0,0.0,371.101696,2
1594660179192094439,544,1594660179199569883,gps_base,0,7,39.5380936,-119.814072,1386.063,197.037369,0.0,0.0,0.0,197.037369,0.0,0.0,0.0,370.601001,2
1594660179391949412,545,1594660179399569842,gps_base,0,7,39.5380947,-119.8140672,1386.094,196.644529,0.0,0.0,0.0,196.644529,0.0,0.0,0.0,370.062169,2
1594660179591844330,546,1594660179599569801,gps_base,0,7,39.5380955,-119.8140621,1385.838,196.224064,0.0,0.0,0.0,196.224064,0.0,0.0,0.0,369.062521,2
1594660179792016349,547,1594660179799569760,gps_base,0,7,39.5380965,-119.8140592,1385.659,195.692121,0.0,0.0,0.0,195.692121,0.0,0.0,0.0,366.952336,2
1594660179995011291,548,1594660179999569720,gps_base,0,7,39.5380973,-119.8140547,1385.549,195.244729,0.0,0.0,0.0,195.244729,0.0,0.0,0.0,365.5744,2
1594660180191805316,549,1594660180199569678,gps_base,0,7,39.5380981,-119.8140502,1385.345,194.714116,0.0,0.0,0.0,194.714116,0.0,0.0,0.0,363.550489,2
1594660180391906035,550,1594660180399569638,gps_base,0,7,39.5380985,-119.8140468,1385.091,193.961329,0.0,0.0,0.0,193.961329,0.0,0.0,0.0,360.012676,2
1594660180591916909,551,1594660180599569597,gps_base,0,7,39.5380993,-119.8140434,1385.072,193.21,0.0,0.0,0.0,193.21,0.0,0.0,0.0,356.680996,2
1594660180791918464,552,1594660180799569556,gps_base,0,7,39.5381,-119.8140377,1384.912,192.515625,0.0,0.0,0.0,192.515625,0.0,0.0,0.0,353.590416,2
1594660180995506324,553,1594660180999569517,gps_base,0,7,39.5381005,-119.8140317,1384.532,191.767104,0.0,0.0,0.0,191.767104,0.0,0.0,0.0,350.925289,2
1594660181191713721,554,1594660181199569475,gps_base,0,7,39.5381014,-119.8140288,1384.57,191.158276,0.0,0.0,0.0,191.158276,0.0,0.0,0.0,349.540416,2
1594660181391524872,555,1594660181399569434,gps_base,0,7,39.5381019,-119.8140262,1384.534,190.633249,0.0,0.0,0.0,190.633249,0.0,0.0,0.0,348.232921,2
1594660181592409496,556,1594660181599569393,gps_base,0,7,39.5381024,-119.8140231,1384.383,190.274436,0.0,0.0,0.0,190.274436,0.0,0.0,0.0,347.039641,2
1594660181791548264,557,1594660181799569352,gps_base,0,7,39.5381027,-119.8140195,1384.395,189.915961,0.0,0.0,0.0,189.915961,0.0,0.0,0.0,345.848409,2
1594660181995103995,558,1594660181999569314,gps_base,0,7,39.5381028,-119.8140153,1383.973,189.557824,0.0,0.0,0.0,189.557824,0.0,0.0,0.0,344.622096,2
1594660182191868621,559,1594660182199569272,gps_base,0,7,39.5381036,-119.8140124,1383.87,189.282564,0.0,0.0,0.0,189.282564,0.0,0.0,0.0,343.991209,2
1594660182391592278,560,1594660182399569230,gps_base,0,7,39.5381045,-119.8140099,1384.157,189.035001,0.0,0.0,0.0,189.035001,0.0,0.0,0.0,343.397961,2
1594660182591801102,561,1594660182599569189,gps_base,0,7,39.5381054,-119.8140069,1384.196,188.7876,0.0,0.0,0.0,188.7876,0.0,0.0,0.0,342.805225,2
1594660182792111166,562,1594660182799569149,gps_base,0,7,39.538106,-119.8140039,1383.963,188.567824,0.0,0.0,0.0,188.567824,0.0,0.0,0.0,342.361009,2
1594660182994831785,563,1594660182999569110,gps_base,0,7,39.5381065,-119.8139985,1383.751,188.403076,0.0,0.0,0.0,188.403076,0.0,0.0,0.0,341.991049,2
1594660183392142503,564,1594660183399569028,gps_base,0,7,39.5381079,-119.8139912,1383.467,187.662601,0.0,0.0,0.0,187.662601,0.0,0.0,0.0,341.1409,2
1594660183591980593,565,1594660183599568988,gps_base,0,7,39.5381088,-119.8139876,1383.433,187.169761,0.0,0.0,0.0,187.169761,0.0,0.0,0.0,340.513209,2
1594660183791794410,566,1594660183799568947,gps_base,0,7,39.5381094,-119.8139849,1383.539,186.650244,0.0,0.0,0.0,186.650244,0.0,0.0,0.0,340.144249,2
1594660183995457515,567,1594660183999568907,gps_base,0,7,39.5381094,-119.8139828,1383.53,186.186025,0.0,0.0,0.0,186.186025,0.0,0.0,0.0,339.996721,2
1594660184191453193,568,1594660184199568866,gps_base,0,7,39.5381102,-119.8139783,1383.26,185.749641,0.0,0.0,0.0,185.749641,0.0,0.0,0.0,339.849225,2
1594660184391861021,569,1594660184399568825,gps_base,0,7,39.5381112,-119.8139768,1383.261,185.313769,0.0,0.0,0.0,185.313769,0.0,0.0,0.0,339.701761,2
1594660184592118760,570,1594660184599568785,gps_base,0,7,39.5381122,-119.813973,1383.03,184.851216,0.0,0.0,0.0,184.851216,0.0,0.0,0.0,339.517476,2
1594660184791493008,571,1594660184799568745,gps_base,0,7,39.5381134,-119.8139703,1382.957,184.280625,0.0,0.0,0.0,184.280625,0.0,0.0,0.0,339.480625,2
1594660184994908020,572,1594660184999568706,gps_base,0,7,39.5381151,-119.813969,1382.865,183.548304,0.0,0.0,0.0,183.548304,0.0,0.0,0.0,339.517476,2
1594660185191564628,573,1594660185199568665,gps_base,0,7,39.5381167,-119.8139663,1382.647,183.115024,0.0,0.0,0.0,183.115024,0.0,0.0,0.0,339.775489,2
1594660185391314120,574,1594660185399568625,gps_base,0,7,39.538118,-119.8139636,1382.451,180.983209,0.0,0.0,0.0,180.983209,0.0,0.0,0.0,339.185889,2
1594660185591105671,575,1594660185599568585,gps_base,0,7,39.5381199,-119.8139632,1382.357,180.606721,0.0,0.0,0.0,180.606721,0.0,0.0,0.0,339.406929,2
1594660185791439507,576,1594660185799568545,gps_base,0,7,39.538121,-119.8139641,1382.338,180.3649,0.0,0.0,0.0,180.3649,0.0,0.0,0.0,339.628041,2
1594660185994889489,577,1594660185999568505,gps_base,0,7,39.5381231,-119.8139652,1382.501,180.0964,0.0,0.0,0.0,180.0964,0.0,0.0,0.0,339.775489,2
1594660186391526650,578,1594660186399568423,gps_base,0,7,39.5381272,-119.8139678,1382.65,179.533201,0.0,0.0,0.0,179.533201,0.0,0.0,0.0,339.6649,2
