%time,field.header.seq,field.header.stamp,field.header.frame_id,field.twist.twist.linear.x,field.twist.twist.linear.y,field.twist.twist.linear.z,field.twist.twist.angular.x,field.twist.twist.angular.y,field.twist.twist.angular.z,field.twist.covariance0,field.twist.covariance1,field.twist.covariance2,field.twist.covariance3,field.twist.covariance4,field.twist.covariance5,field.twist.covariance6,field.twist.covariance7,field.twist.covariance8,field.twist.covariance9,field.twist.covariance10,field.twist.covariance11,field.twist.covariance12,field.twist.covariance13,field.twist.covariance14,field.twist.covariance15,field.twist.covariance16,field.twist.covariance17,field.twist.covariance18,field.twist.covariance19,field.twist.covariance20,field.twist.covariance21,field.twist.covariance22,field.twist.covariance23,field.twist.covariance24,field.twist.covariance25,field.twist.covariance26,field.twist.covariance27,field.twist.covariance28,field.twist.covariance29,field.twist.covariance30,field.twist.covariance31,field.twist.covariance32,field.twist.covariance33,field.twist.covariance34,field.twist.covariance35
1594660096198881704,177,1594660096199588663,gps_base,0.378,-0.036,-0.202,0.0,0.0,0.0,0.772641,0.0,0.0,0.0,0.0,0.0,0.0,0.772641,0.0,0.0,0.0,0.0,0.0,0.0,0.772641,0.0,0.0,0.0,0.0,0.0,0.0,-1.0,0.0,0.0,0.0,0.0,0.0,0.0,0.0,0.0,0.0,0.0,0.0,0.0,0.0,0.0
1594660096398817110,178,1594660096399588612,gps_base,0.386,-0.011,-0.201,0.0,0.0,0.0,0.784996,0.0,0.0,0.0,0.0,0.0,0.0,0.784996,0.0,0.0,0.0,0.0,0.0,0.0,0.784996,0.0,0.0,0.0,0.0,0.0,0.0,-1.0,0.0,0.0,0.0,0.0,0.0,0.0,0.0,0.0,0.0,0.0,0.0,0.0,0.0,0.0
1594660096598667158,179,1594660096599588561,gps_base,0.365,-0.006,-0.199,0.0,0.0,0.0,0.784996,0.0,0.0,0.0,0.0,0.0,0.0,0.784996,0.0,0.0,0.0,0.0,0.0,0.0,0.784996,0.0,0.0,0.0,0.0,0.0,0.0,-1.0,0.0,0.0,0.0,0.0,0.0,0.0,0.0,0.0,0.0,0.0,0.0,0.0,0.0,0.0
1594660096798819213,180,1594660096799588510,gps_base,0.282,0.02,-0.188,0.0,0.0,0.0,0.772641,0.0,0.0,0.0,0.0,0.0,0.0,0.772641,0.0,0.0,0.0,0.0,0.0,0.0,0.772641,0.0,0.0,0.0,0.0,0.0,0.0,-1.0,0.0,0.0,0.0,0.0,0.0,0.0,0.0,0.0,0.0,0.0,0.0,0.0,0.0,0.0
1594660097002709075,181,1594660096999588460,gps_base,-0.064,0.082,-0.159,0.0,0.0,0.0,0.232324,0.0,0.0,0.0,0.0,0.0,0.0,0.232324,0.0,0.0,0.0,0.0,0.0,0.0,0.232324,0.0,0.0,0.0,0.0,0.0,0.0,-1.0,0.0,0.0,0.0,0.0,0.0,0.0,0.0,0.0,0.0,0.0,0.0,0.0,0.0,0.0
1594660097198609858,182,1594660097199588408,gps_base,0.67,0.016,-0.192,0.0,0.0,0.0,0.755161,0.0,0.0,0.0,0.0,0.0,0.0,0.755161,0.0,0.0,0.0,0.0,0.0,0.0,0.755161,0.0,0.0,0.0,0.0,0.0,0.0,-1.0,0.0,0.0,0.0,0.0,0.0,0.0,0.0,0.0,0.0,0.0,0.0,0.0,0.0,0.0
1594660097398564676,183,1594660097399588357,gps_base,1.041,-0.033,-0.213,0.0,0.0,0.0,0.695556,0.0,0.0,0.0,0.0,0.0,0.0,0.695556,0.0,0.0,0.0,0.0,0.0,0.0,0.695556,0.0,0.0,0.0,0.0,0.0,0.0,-1.0,0.0,0.0,0.0,0.0,0.0,0.0,0.0,0.0,0.0,0.0,0.0,0.0,0.0,0.0
1594660097598727279,184,1594660097599588306,gps_base,1.283,-0.168,-0.225,0.0,0.0,0.0,0.675684,0.0,0.0,0.0,0.0,0.0,0.0,0.675684,0.0,0.0,0.0,0.0,0.0,0.0,0.675684,0.0,0.0,0.0,0.0,0.0,0.0,-1.0,0.0,0.0,0.0,0.0,0.0,0.0,0.0,0.0,0.0,0.0,0.0,0.0,0.0,0.0
1594660097798536842,185,1594660097799588255,gps_base,2.107,-0.123,-0.287,0.0,0.0,0.0,0.6889,0.0,0.0,0.0,0.0,0.0,0.0,0.6889,0.0,0.0,0.0,0.0,0.0,0.0,0.6889,0.0,0.0,0.0,0.0,0.0,0.0,-1.0,0.0,0.0,0.0,0.0,0.0,0.0,0.0,0.0,0.0,0.0,0.0,0.0,0.0,0.0
1594660098001909559,186,1594660097999588203,gps_base,0.908,-0.145,-0.068,0.0,0.0,0.0,0.734449,0.0,0.0,0.0,0.0,0.0,0.0,0.734449,0.0,0.0,0.0,0.0,0.0,0.0,0.734449,0.0,0.0,0.0,0.0,0.0,0.0,-1.0,0.0,0.0,0.0,0.0,0.0,0.0,0.0,0.0,0.0,0.0,0.0,0.0,0.0,0.0
1594660098198740128,187,1594660098199588153,gps_base,0.532,-0.034,-0.155,0.0,0.0,0.0,0.863041,0.0,0.0,0.0,0.0,0.0,0.0,0.863041,0.0,0.0,0.0,0.0,0.0,0.0,0.863041,0.0,0.0,0.0,0.0,0.0,0.0,-1.0,0.0,0.0,0.0,0.0,0.0,0.0,0.0,0.0,0.0,0.0,0.0,0.0,0.0,0.0
1594660098399478154,188,1594660098399588101,gps_base,0.684,-0.101,-0.142,0.0,0.0,0.0,0.904401,0.0,0.0,0.0,0.0,0.0,0.0,0.904401,0.0,0.0,0.0,0.0,0.0,0.0,0.904401,0.0,0.0,0.0,0.0,0.0,0.0,-1.0,0.0,0.0,0.0,0.0,0.0,0.0,0.0,0.0,0.0,0.0,0.0,0.0,0.0,0.0
1594660098598562028,189,1594660098599588050,gps_base,0.283,-0.19,-0.08,0.0,0.0,0.0,0.806404,0.0,0.0,0.0,0.0,0.0,0.0,0.806404,0.0,0.0,0.0,0.0,0.0,0.0,0.806404,0.0,0.0,0.0,0.0,0.0,0.0,-1.0,0.0,0.0,0.0,0.0,0.0,0.0,0.0,0.0,0.0,0.0,0.0,0.0,0.0,0.0
1594660098799175953,190,1594660098799587999,gps_base,0.324,-0.01,-0.098,0.0,0.0,0.0,0.968256,0.0,0.0,0.0,0.0,0.0,0.0,0.968256,0.0,0.0,0.0,0.0,0.0,0.0,0.968256,0.0,0.0,0.0,0.0,0.0,0.0,-1.0,0.0,0.0,0.0,0.0,0.0,0.0,0.0,0.0,0.0,0.0,0.0,0.0,0.0,0.0
1594660099198407619,191,1594660099199587896,gps_base,0.445,0.096,-0.1,0.0,0.0,0.0,0.950625,0.0,0.0,0.0,0.0,0.0,0.0,0.950625,0.0,0.0,0.0,0.0,0.0,0.0,0.950625,0.0,0.0,0.0,0.0,0.0,0.0,-1.0,0.0,0.0,0.0,0.0,0.0,0.0,0.0,0.0,0.0,0.0,0.0,0.0,0.0,0.0
1594660099398762492,192,1594660099399587845,gps_base,0.697,0.318,-0.1,0.0,0.0,0.0,0.910116,0.0,0.0,0.0,0.0,0.0,0.0,0.910116,0.0,0.0,0.0,0.0,0.0,0.0,0.910116,0.0,0.0,0.0,0.0,0.0,0.0,-1.0,0.0,0.0,0.0,0.0,0.0,0.0,0.0,0.0,0.0,0.0,0.0,0.0,0.0,0.0
1594660099598457246,193,1594660099599587794,gps_base,1.105,0.205,-0.142,0.0,0.0,0.0,1.032256,0.0,0.0,0.0,0.0,0.0,0.0,1.032256,0.0,0.0,0.0,0.0,0.0,0.0,1.032256,0.0,0.0,0.0,0.0,0.0,0.0,-1.0,0.0,0.0,0.0,0.0,0.0,0.0,0.0,0.0,0.0,0.0,0.0,0.0,0.0,0.0
1594660099798629102,194,1594660099799587743,gps_base,0.861,0.126,-0.12,0.0,0.0,0.0,1.065024,0.0,0.0,0.0,0.0,0.0,0.0,1.065024,0.0,0.0,0.0,0.0,0.0,0.0,1.065024,0.0,0.0,0.0,0.0,0.0,0.0,-1.0,0.0,0.0,0.0,0.0,0.0,0.0,0.0,0.0,0.0,0.0,0.0,0.0,0.0,0.0
1594660100002387890,195,1594660099999587693,gps_base,0.898,0.03,-0.135,0.0,0.0,0.0,1.094116,0.0,0.0,0.0,0.0,0.0,0.0,1.094116,0.0,0.0,0.0,0.0,0.0,0.0,1.094116,0.0,0.0,0.0,0.0,0.0,0.0,-1.0,0.0,0.0,0.0,0.0,0.0,0.0,0.0,0.0,0.0,0.0,0.0,0.0,0.0,0.0
1594660100198461069,196,1594660100199587640,gps_base,1.364,-0.069,-0.147,0.0,0.0,0.0,1.089936,0.0,0.0,0.0,0.0,0.0,0.0,1.089936,0.0,0.0,0.0,0.0,0.0,0.0,1.089936,0.0,0.0,0.0,0.0,0.0,0.0,-1.0,0.0,0.0,0.0,0.0,0.0,0.0,0.0,0.0,0.0,0.0,0.0,0.0,0.0,0.0
1594660100398315635,197,1594660100399587590,gps_base,1.554,0.154,-0.087,0.0,0.0,0.0,1.147041,0.0,0.0,0.0,0.0,0.0,0.0,1.147041,0.0,0.0,0.0,0.0,0.0,0.0,1.147041,0.0,0.0,0.0,0.0,0.0,0.0,-1.0,0.0,0.0,0.0,0.0,0.0,0.0,0.0,0.0,0.0,0.0,0.0,0.0,0.0,0.0
1594660100598697944,198,1594660100599587539,gps_base,1.633,-0.059,-0.091,0.0,0.0,0.0,1.194649,0.0,0.0,0.0,0.0,0.0,0.0,1.194649,0.0,0.0,0.0,0.0,0.0,0.0,1.194649,0.0,0.0,0.0,0.0,0.0,0.0,-1.0,0.0,0.0,0.0,0.0,0.0,0.0,0.0,0.0,0.0,0.0,0.0,0.0,0.0,0.0
1594660100798449123,199,1594660100799587487,gps_base,1.815,-0.344,-0.081,0.0,0.0,0.0,1.172889,0.0,0.0,0.0,0.0,0.0,0.0,1.172889,0.0,0.0,0.0,0.0,0.0,0.0,1.172889,0.0,0.0,0.0,0.0,0.0,0.0,-1.0,0.0,0.0,0.0,0.0,0.0,0.0,0.0,0.0,0.0,0.0,0.0,0.0,0.0,0.0
1594660101002049795,200,1594660100999587437,gps_base,1.299,-0.2,-0.054,0.0,0.0,0.0,1.1881,0.0,0.0,0.0,0.0,0.0,0.0,1.1881,0.0,0.0,0.0,0.0,0.0,0.0,1.1881,0.0,0.0,0.0,0.0,0.0,0.0,-1.0,0.0,0.0,0.0,0.0,0.0,0.0,0.0,0.0,0.0,0.0,0.0,0.0,0.0,0.0
1594660101397934066,201,1594660101399587336,gps_base,0.807,-0.146,-0.043,0.0,0.0,0.0,1.223236,0.0,0.0,0.0,0.0,0.0,0.0,1.223236,0.0,0.0,0.0,0.0,0.0,0.0,1.223236,0.0,0.0,0.0,0.0,0.0,0.0,-1.0,0.0,0.0,0.0,0.0,0.0,0.0,0.0,0.0,0.0,0.0,0.0,0.0,0.0,0.0
1594660101598199561,202,1594660101599587285,gps_base,0.543,-0.166,-0.032,0.0,0.0,0.0,1.181569,0.0,0.0,0.0,0.0,0.0,0.0,1.181569,0.0,0.0,0.0,0.0,0.0,0.0,1.181569,0.0,0.0,0.0,0.0,0.0,0.0,-1.0,0.0,0.0,0.0,0.0,0.0,0.0,0.0,0.0,0.0,0.0,0.0,0.0,0.0,0.0
1594660101798199015,203,1594660101799587233,gps_base,0.368,-0.3,-0.003,0.0,0.0,0.0,0.896809,0.0,0.0,0.0,0.0,0.0,0.0,0.896809,0.0,0.0,0.0,0.0,0.0,0.0,0.896809,0.0,0.0,0.0,0.0,0.0,0.0,-1.0,0.0,0.0,0.0,0.0,0.0,0.0,0.0,0.0,0.0,0.0,0.0,0.0,0.0,0.0
1594660102001240698,204,1594660101999587183,gps_base,0.191,-0.456,0.027,0.0,0.0,0.0,0.606841,0.0,0.0,0.0,0.0,0.0,0.0,0.606841,0.0,0.0,0.0,0.0,0.0,0.0,0.606841,0.0,0.0,0.0,0.0,0.0,0.0,-1.0,0.0,0.0,0.0,0.0,0.0,0.0,0.0,0.0,0.0,0.0,0.0,0.0,0.0,0.0
1594660102197946725,205,1594660102199587131,gps_base,0.04,-0.61,0.046,0.0,0.0,0.0,0.534361,0.0,0.0,0.0,0.0,0.0,0.0,0.534361,0.0,0.0,0.0,0.0,0.0,0.0,0.534361,0.0,0.0,0.0,0.0,0.0,0.0,-1.0,0.0,0.0,0.0,0.0,0.0,0.0,0.0,0.0,0.0,0.0,0.0,0.0,0.0,0.0
1594660102398266010,206,1594660102399587081,gps_base,0.135,-0.76,0.046,0.0,0.0,0.0,0.561001,0.0,0.0,0.0,0.0,0.0,0.0,0.561001,0.0,0.0,0.0,0.0,0.0,0.0,0.561001,0.0,0.0,0.0,0.0,0.0,0.0,-1.0,0.0,0.0,0.0,0.0,0.0,0.0,0.0,0.0,0.0,0.0,0.0,0.0,0.0,0.0
1594660102798087425,207,1594660102799586981,gps_base,0.385,-0.666,0.048,0.0,0.0,0.0,0.784996,0.0,0.0,0.0,0.0,0.0,0.0,0.784996,0.0,0.0,0.0,0.0,0.0,0.0,0.784996,0.0,0.0,0.0,0.0,0.0,0.0,-1.0,0.0,0.0,0.0,0.0,0.0,0.0,0.0,0.0,0.0,0.0,0.0,0.0,0.0,0.0
1594660103001632802,208,1594660102999586931,gps_base,0.408,-0.79,0.058,0.0,0.0,0.0,0.808201,0.0,0.0,0.0,0.0,0.0,0.0,0.808201,0.0,0.0,0.0,0.0,0.0,0.0,0.808201,0.0,0.0,0.0,0.0,0.0,0.0,-1.0,0.0,0.0,0.0,0.0,0.0,0.0,0.0,0.0,0.0,0.0,0.0,0.0,0.0,0.0
1594660103197989687,209,1594660103199586879,gps_base,0.373,-0.923,0.059,0.0,0.0,0.0,0.795664,0.0,0.0,0.0,0.0,0.0,0.0,0.795664,0.0,0.0,0.0,0.0,0.0,0.0,0.795664,0.0,0.0,0.0,0.0,0.0,0.0,-1.0,0.0,0.0,0.0,0.0,0.0,0.0,0.0,0.0,0.0,0.0,0.0,0.0,0.0,0.0
1594660103398143107,210,1594660103399586828,gps_base,0.105,-0.971,0.078,0.0,0.0,0.0,0.687241,0.0,0.0,0.0,0.0,0.0,0.0,0.687241,0.0,0.0,0.0,0.0,0.0,0.0,0.687241,0.0,0.0,0.0,0.0,0.0,0.0,-1.0,0.0,0.0,0.0,0.0,0.0,0.0,0.0,0.0,0.0,0.0,0.0,0.0,0.0,0.0
1594660103598320020,211,1594660103599586777,gps_base,0.057,-0.962,0.079,0.0,0.0,0.0,0.674041,0.0,0.0,0.0,0.0,0.0,0.0,0.674041,0.0,0.0,0.0,0.0,0.0,0.0,0.674041,0.0,0.0,0.0,0.0,0.0,0.0,-1.0,0.0,0.0,0.0,0.0,0.0,0.0,0.0,0.0,0.0,0.0,0.0,0.0,0.0,0.0
1594660103798155240,212,1594660103799586727,gps_base,-0.068,-1.05,0.089,0.0,0.0,0.0,0.652864,0.0,0.0,0.0,0.0,0.0,0.0,0.652864,0.0,0.0,0.0,0.0,0.0,0.0,0.652864,0.0,0.0,0.0,0.0,0.0,0.0,-1.0,0.0,0.0,0.0,0.0,0.0,0.0,0.0,0.0,0.0,0.0,0.0,0.0,0.0,0.0
1594660104001213585,213,1594660103999586679,gps_base,0.014,-0.954,0.103,0.0,0.0,0.0,0.677329,0.0,0.0,0.0,0.0,0.0,0.0,0.677329,0.0,0.0,0.0,0.0,0.0,0.0,0.677329,0.0,0.0,0.0,0.0,0.0,0.0,-1.0,0.0,0.0,0.0,0.0,0.0,0.0,0.0,0.0,0.0,0.0,0.0,0.0,0.0,0.0
1594660104198007549,214,1594660104199586628,gps_base,0.051,-0.725,0.12,0.0,0.0,0.0,0.638401,0.0,0.0,0.0,0.0,0.0,0.0,0.638401,0.0,0.0,0.0,0.0,0.0,0.0,0.638401,0.0,0.0,0.0,0.0,0.0,0.0,-1.0,0.0,0.0,0.0,0.0,0.0,0.0,0.0,0.0,0.0,0.0,0.0,0.0,0.0,0.0
1594660104397804220,215,1594660104399586578,gps_base,-0.093,-0.79,0.125,0.0,0.0,0.0,0.627264,0.0,0.0,0.0,0.0,0.0,0.0,0.627264,0.0,0.0,0.0,0.0,0.0,0.0,0.627264,0.0,0.0,0.0,0.0,0.0,0.0,-1.0,0.0,0.0,0.0,0.0,0.0,0.0,0.0,0.0,0.0,0.0,0.0,0.0,0.0,0.0
1594660104798035139,216,1594660104799586478,gps_base,-0.024,-0.951,0.16,0.0,0.0,0.0,0.561001,0.0,0.0,0.0,0.0,0.0,0.0,0.561001,0.0,0.0,0.0,0.0,0.0,0.0,0.561001,0.0,0.0,0.0,0.0,0.0,0.0,-1.0,0.0,0.0,0.0,0.0,0.0,0.0,0.0,0.0,0.0,0.0,0.0,0.0,0.0,0.0
1594660105001019616,217,1594660104999586428,gps_base,-0.226,-0.959,0.18,0.0,0.0,0.0,0.620944,0.0,0.0,0.0,0.0,0.0,0.0,0.620944,0.0,0.0,0.0,0.0,0.0,0.0,0.620944,0.0,0.0,0.0,0.0,0.0,0.0,-1.0,0.0,0.0,0.0,0.0,0.0,0.0,0.0,0.0,0.0,0.0,0.0,0.0,0.0,0.0
1594660105397794499,218,1594660105399586327,gps_base,-0.079,-0.806,0.22,0.0,0.0,0.0,0.49,0.0,0.0,0.0,0.0,0.0,0.0,0.49,0.0,0.0,0.0,0.0,0.0,0.0,0.49,0.0,0.0,0.0,0.0,0.0,0.0,-1.0,0.0,0.0,0.0,0.0,0.0,0.0,0.0,0.0,0.0,0.0,0.0,0.0,0.0,0.0
1594660105597894927,219,1594660105599586276,gps_base,-0.374,-0.842,0.217,0.0,0.0,0.0,0.6889,0.0,0.0,0.0,0.0,0.0,0.0,0.6889,0.0,0.0,0.0,0.0,0.0,0.0,0.6889,0.0,0.0,0.0,0.0,0.0,0.0,-1.0,0.0,0.0,0.0,0.0,0.0,0.0,0.0,0.0,0.0,0.0,0.0,0.0,0.0,0.0
1594660105797803559,220,1594660105799586227,gps_base,-0.271,-1.083,0.231,0.0,0.0,0.0,0.571536,0.0,0.0,0.0,0.0,0.0,0.0,0.571536,0.0,0.0,0.0,0.0,0.0,0.0,0.571536,0.0,0.0,0.0,0.0,0.0,0.0,-1.0,0.0,0.0,0.0,0.0,0.0,0.0,0.0,0.0,0.0,0.0,0.0,0.0,0.0,0.0
1594660106001541548,221,1594660105999586177,gps_base,-0.322,-0.999,0.257,0.0,0.0,0.0,0.605284,0.0,0.0,0.0,0.0,0.0,0.0,0.605284,0.0,0.0,0.0,0.0,0.0,0.0,0.605284,0.0,0.0,0.0,0.0,0.0,0.0,-1.0,0.0,0.0,0.0,0.0,0.0,0.0,0.0,0.0,0.0,0.0,0.0,0.0,0.0,0.0
1594660106397575868,222,1594660106399586074,gps_base,-0.361,-0.816,0.295,0.0,0.0,0.0,0.795664,0.0,0.0,0.0,0.0,0.0,0.0,0.795664,0.0,0.0,0.0,0.0,0.0,0.0,0.795664,0.0,0.0,0.0,0.0,0.0,0.0,-1.0,0.0,0.0,0.0,0.0,0.0,0.0,0.0,0.0,0.0,0.0,0.0,0.0,0.0,0.0
1594660106597660641,223,1594660106599586023,gps_base,-0.251,-0.87,0.318,0.0,0.0,0.0,0.770884,0.0,0.0,0.0,0.0,0.0,0.0,0.770884,0.0,0.0,0.0,0.0,0.0,0.0,0.770884,0.0,0.0,0.0,0.0,0.0,0.0,-1.0,0.0,0.0,0.0,0.0,0.0,0.0,0.0,0.0,0.0,0.0,0.0,0.0,0.0,0.0
1594660106797476254,224,1594660106799585973,gps_base,-0.288,-0.696,0.316,0.0,0.0,0.0,0.948676,0.0,0.0,0.0,0.0,0.0,0.0,0.948676,0.0,0.0,0.0,0.0,0.0,0.0,0.948676,0.0,0.0,0.0,0.0,0.0,0.0,-1.0,0.0,0.0,0.0,0.0,0.0,0.0,0.0,0.0,0.0,0.0,0.0,0.0,0.0,0.0
1594660107000960742,225,1594660106999585925,gps_base,-0.15,-0.624,0.34,0.0,0.0,0.0,0.835396,0.0,0.0,0.0,0.0,0.0,0.0,0.835396,0.0,0.0,0.0,0.0,0.0,0.0,0.835396,0.0,0.0,0.0,0.0,0.0,0.0,-1.0,0.0,0.0,0.0,0.0,0.0,0.0,0.0,0.0,0.0,0.0,0.0,0.0,0.0,0.0
1594660107197681777,226,1594660107199585873,gps_base,-0.157,-0.598,0.363,0.0,0.0,0.0,0.859329,0.0,0.0,0.0,0.0,0.0,0.0,0.859329,0.0,0.0,0.0,0.0,0.0,0.0,0.859329,0.0,0.0,0.0,0.0,0.0,0.0,-1.0,0.0,0.0,0.0,0.0,0.0,0.0,0.0,0.0,0.0,0.0,0.0,0.0,0.0,0.0
1594660107397771800,227,1594660107399585824,gps_base,-0.037,-0.643,0.372,0.0,0.0,0.0,0.707281,0.0,0.0,0.0,0.0,0.0,0.0,0.707281,0.0,0.0,0.0,0.0,0.0,0.0,0.707281,0.0,0.0,0.0,0.0,0.0,0.0,-1.0,0.0,0.0,0.0,0.0,0.0,0.0,0.0,0.0,0.0,0.0,0.0,0.0,0.0,0.0
1594660107597340561,228,1594660107599585774,gps_base,-0.074,-0.716,0.396,0.0,0.0,0.0,0.7225,0.0,0.0,0.0,0.0,0.0,0.0,0.7225,0.0,0.0,0.0,0.0,0.0,0.0,0.7225,0.0,0.0,0.0,0.0,0.0,0.0,-1.0,0.0,0.0,0.0,0.0,0.0,0.0,0.0,0.0,0.0,0.0,0.0,0.0,0.0,0.0
1594660107797596171,229,1594660107799585725,gps_base,0.152,-0.766,0.39,0.0,0.0,0.0,0.4624,0.0,0.0,0.0,0.0,0.0,0.0,0.4624,0.0,0.0,0.0,0.0,0.0,0.0,0.4624,0.0,0.0,0.0,0.0,0.0,0.0,-1.0,0.0,0.0,0.0,0.0,0.0,0.0,0.0,0.0,0.0,0.0,0.0,0.0,0.0,0.0
1594660108000809932,230,1594660107999585676,gps_base,0.097,-0.489,0.371,0.0,0.0,0.0,0.361201,0.0,0.0,0.0,0.0,0.0,0.0,0.361201,0.0,0.0,0.0,0.0,0.0,0.0,0.361201,0.0,0.0,0.0,0.0,0.0,0.0,-1.0,0.0,0.0,0.0,0.0,0.0,0.0,0.0,0.0,0.0,0.0,0.0,0.0,0.0,0.0
1594660108397836108,231,1594660108399585575,gps_base,0.06,-0.297,0.396,0.0,0.0,0.0,0.329476,0.0,0.0,0.0,0.0,0.0,0.0,0.329476,0.0,0.0,0.0,0.0,0.0,0.0,0.329476,0.0,0.0,0.0,0.0,0.0,0.0,-1.0,0.0,0.0,0.0,0.0,0.0,0.0,0.0,0.0,0.0,0.0,0.0,0.0,0.0,0.0
1594660108597169431,232,1594660108599585526,gps_base,0.164,-0.435,0.392,0.0,0.0,0.0,0.295936,0.0,0.0,0.0,0.0,0.0,0.0,0.295936,0.0,0.0,0.0,0.0,0.0,0.0,0.295936,0.0,0.0,0.0,0.0,0.0,0.0,-1.0,0.0,0.0,0.0,0.0,0.0,0.0,0.0,0.0,0.0,0.0,0.0,0.0,0.0,0.0
1594660108797433801,233,1594660108799585476,gps_base,0.195,-0.328,0.415,0.0,0.0,0.0,0.284089,0.0,0.0,0.0,0.0,0.0,0.0,0.284089,0.0,0.0,0.0,0.0,0.0,0.0,0.284089,0.0,0.0,0.0,0.0,0.0,0.0,-1.0,0.0,0.0,0.0,0.0,0.0,0.0,0.0,0.0,0.0,0.0,0.0,0.0,0.0,0.0
1594660109000682653,234,1594660108999585428,gps_base,0.396,-0.159,0.417,0.0,0.0,0.0,0.452929,0.0,0.0,0.0,0.0,0.0,0.0,0.452929,0.0,0.0,0.0,0.0,0.0,0.0,0.452929,0.0,0.0,0.0,0.0,0.0,0.0,-1.0,0.0,0.0,0.0,0.0,0.0,0.0,0.0,0.0,0.0,0.0,0.0,0.0,0.0,0.0
1594660109197599693,235,1594660109199585377,gps_base,0.181,-0.276,0.425,0.0,0.0,0.0,0.311364,0.0,0.0,0.0,0.0,0.0,0.0,0.311364,0.0,0.0,0.0,0.0,0.0,0.0,0.311364,0.0,0.0,0.0,0.0,0.0,0.0,-1.0,0.0,0.0,0.0,0.0,0.0,0.0,0.0,0.0,0.0,0.0,0.0,0.0,0.0,0.0
1594660109397516571,236,1594660109399585328,gps_base,0.425,0.067,0.419,0.0,0.0,0.0,0.599076,0.0,0.0,0.0,0.0,0.0,0.0,0.599076,0.0,0.0,0.0,0.0,0.0,0.0,0.599076,0.0,0.0,0.0,0.0,0.0,0.0,-1.0,0.0,0.0,0.0,0.0,0.0,0.0,0.0,0.0,0.0,0.0,0.0,0.0,0.0,0.0
1594660109597402743,237,1594660109599585279,gps_base,0.453,-0.119,0.411,0.0,0.0,0.0,0.565504,0.0,0.0,0.0,0.0,0.0,0.0,0.565504,0.0,0.0,0.0,0.0,0.0,0.0,0.565504,0.0,0.0,0.0,0.0,0.0,0.0,-1.0,0.0,0.0,0.0,0.0,0.0,0.0,0.0,0.0,0.0,0.0,0.0,0.0,0.0,0.0
1594660109797259766,238,1594660109799585230,gps_base,0.329,-0.329,0.404,0.0,0.0,0.0,0.425104,0.0,0.0,0.0,0.0,0.0,0.0,0.425104,0.0,0.0,0.0,0.0,0.0,0.0,0.425104,0.0,0.0,0.0,0.0,0.0,0.0,-1.0,0.0,0.0,0.0,0.0,0.0,0.0,0.0,0.0,0.0,0.0,0.0,0.0,0.0,0.0
1594660110197596427,239,1594660110199585130,gps_base,0.087,-0.014,0.417,0.0,0.0,0.0,0.410881,0.0,0.0,0.0,0.0,0.0,0.0,0.410881,0.0,0.0,0.0,0.0,0.0,0.0,0.410881,0.0,0.0,0.0,0.0,0.0,0.0,-1.0,0.0,0.0,0.0,0.0,0.0,0.0,0.0,0.0,0.0,0.0,0.0,0.0,0.0,0.0
1594660110397115606,240,1594660110399585081,gps_base,0.125,0.121,0.421,0.0,0.0,0.0,0.491401,0.0,0.0,0.0,0.0,0.0,0.0,0.491401,0.0,0.0,0.0,0.0,0.0,0.0,0.491401,0.0,0.0,0.0,0.0,0.0,0.0,-1.0,0.0,0.0,0.0,0.0,0.0,0.0,0.0,0.0,0.0,0.0,0.0,0.0,0.0,0.0
1594660110797370281,241,1594660110799584983,gps_base,0.114,0.189,0.417,0.0,0.0,0.0,0.524176,0.0,0.0,0.0,0.0,0.0,0.0,0.524176,0.0,0.0,0.0,0.0,0.0,0.0,0.524176,0.0,0.0,0.0,0.0,0.0,0.0,-1.0,0.0,0.0,0.0,0.0,0.0,0.0,0.0,0.0,0.0,0.0,0.0,0.0,0.0,0.0
1594660111000363510,242,1594660110999584935,gps_base,0.079,0.102,0.424,0.0,0.0,0.0,0.4761,0.0,0.0,0.0,0.0,0.0,0.0,0.4761,0.0,0.0,0.0,0.0,0.0,0.0,0.4761,0.0,0.0,0.0,0.0,0.0,0.0,-1.0,0.0,0.0,0.0,0.0,0.0,0.0,0.0,0.0,0.0,0.0,0.0,0.0,0.0,0.0
1594660111196856329,243,1594660111199584885,gps_base,-0.019,0.148,0.458,0.0,0.0,0.0,0.549081,0.0,0.0,0.0,0.0,0.0,0.0,0.549081,0.0,0.0,0.0,0.0,0.0,0.0,0.549081,0.0,0.0,0.0,0.0,0.0,0.0,-1.0,0.0,0.0,0.0,0.0,0.0,0.0,0.0,0.0,0.0,0.0,0.0,0.0,0.0,0.0
1594660111597356656,244,1594660111599584787,gps_base,-0.064,0.25,0.489,0.0,0.0,0.0,0.614656,0.0,0.0,0.0,0.0,0.0,0.0,0.614656,0.0,0.0,0.0,0.0,0.0,0.0,0.614656,0.0,0.0,0.0,0.0,0.0,0.0,-1.0,0.0,0.0,0.0,0.0,0.0,0.0,0.0,0.0,0.0,0.0,0.0,0.0,0.0,0.0
1594660111797090621,245,1594660111799584737,gps_base,-0.265,0.348,0.482,0.0,0.0,0.0,0.851929,0.0,0.0,0.0,0.0,0.0,0.0,0.851929,0.0,0.0,0.0,0.0,0.0,0.0,0.851929,0.0,0.0,0.0,0.0,0.0,0.0,-1.0,0.0,0.0,0.0,0.0,0.0,0.0,0.0,0.0,0.0,0.0,0.0,0.0,0.0,0.0
1594660112000659645,246,1594660111999584689,gps_base,-0.102,0.319,0.496,0.0,0.0,0.0,0.657721,0.0,0.0,0.0,0.0,0.0,0.0,0.657721,0.0,0.0,0.0,0.0,0.0,0.0,0.657721,0.0,0.0,0.0,0.0,0.0,0.0,-1.0,0.0,0.0,0.0,0.0,0.0,0.0,0.0,0.0,0.0,0.0,0.0,0.0,0.0,0.0
1594660112197060599,247,1594660112199584639,gps_base,-0.203,0.427,0.485,0.0,0.0,0.0,0.7569,0.0,0.0,0.0,0.0,0.0,0.0,0.7569,0.0,0.0,0.0,0.0,0.0,0.0,0.7569,0.0,0.0,0.0,0.0,0.0,0.0,-1.0,0.0,0.0,0.0,0.0,0.0,0.0,0.0,0.0,0.0,0.0,0.0,0.0,0.0,0.0
1594660112597482728,248,1594660112599584542,gps_base,-0.387,0.609,0.456,0.0,0.0,0.0,0.8836,0.0,0.0,0.0,0.0,0.0,0.0,0.8836,0.0,0.0,0.0,0.0,0.0,0.0,0.8836,0.0,0.0,0.0,0.0,0.0,0.0,-1.0,0.0,0.0,0.0,0.0,0.0,0.0,0.0,0.0,0.0,0.0,0.0,0.0,0.0,0.0
1594660112797032309,249,1594660112799584493,gps_base,-0.183,0.417,0.517,0.0,0.0,0.0,0.732736,0.0,0.0,0.0,0.0,0.0,0.0,0.732736,0.0,0.0,0.0,0.0,0.0,0.0,0.732736,0.0,0.0,0.0,0.0,0.0,0.0,-1.0,0.0,0.0,0.0,0.0,0.0,0.0,0.0,0.0,0.0,0.0,0.0,0.0,0.0,0.0
1594660113000185677,250,1594660112999584445,gps_base,0.123,0.233,0.569,0.0,0.0,0.0,0.546121,0.0,0.0,0.0,0.0,0.0,0.0,0.546121,0.0,0.0,0.0,0.0,0.0,0.0,0.546121,0.0,0.0,0.0,0.0,0.0,0.0,-1.0,0.0,0.0,0.0,0.0,0.0,0.0,0.0,0.0,0.0,0.0,0.0,0.0,0.0,0.0
1594660113196967237,251,1594660113199584394,gps_base,0.028,0.2,0.592,0.0,0.0,0.0,0.515524,0.0,0.0,0.0,0.0,0.0,0.0,0.515524,0.0,0.0,0.0,0.0,0.0,0.0,0.515524,0.0,0.0,0.0,0.0,0.0,0.0,-1.0,0.0,0.0,0.0,0.0,0.0,0.0,0.0,0.0,0.0,0.0,0.0,0.0,0.0,0.0
1594660113396704577,252,1594660113399584346,gps_base,0.087,0.283,0.62,0.0,0.0,0.0,0.515524,0.0,0.0,0.0,0.0,0.0,0.0,0.515524,0.0,0.0,0.0,0.0,0.0,0.0,0.515524,0.0,0.0,0.0,0.0,0.0,0.0,-1.0,0.0,0.0,0.0,0.0,0.0,0.0,0.0,0.0,0.0,0.0,0.0,0.0,0.0,0.0
1594660113797017392,253,1594660113799584250,gps_base,0.347,0.269,0.649,0.0,0.0,0.0,0.529984,0.0,0.0,0.0,0.0,0.0,0.0,0.529984,0.0,0.0,0.0,0.0,0.0,0.0,0.529984,0.0,0.0,0.0,0.0,0.0,0.0,-1.0,0.0,0.0,0.0,0.0,0.0,0.0,0.0,0.0,0.0,0.0,0.0,0.0,0.0,0.0
1594660113999885504,254,1594660113999584203,gps_base,0.32,0.271,0.686,0.0,0.0,0.0,0.477481,0.0,0.0,0.0,0.0,0.0,0.0,0.477481,0.0,0.0,0.0,0.0,0.0,0.0,0.477481,0.0,0.0,0.0,0.0,0.0,0.0,-1.0,0.0,0.0,0.0,0.0,0.0,0.0,0.0,0.0,0.0,0.0,0.0,0.0,0.0,0.0
1594660114196814800,255,1594660114199584153,gps_base,0.364,0.305,0.664,0.0,0.0,0.0,0.488601,0.0,0.0,0.0,0.0,0.0,0.0,0.488601,0.0,0.0,0.0,0.0,0.0,0.0,0.488601,0.0,0.0,0.0,0.0,0.0,0.0,-1.0,0.0,0.0,0.0,0.0,0.0,0.0,0.0,0.0,0.0,0.0,0.0,0.0,0.0,0.0
1594660114396905469,256,1594660114399584104,gps_base,0.572,0.335,0.689,0.0,0.0,0.0,0.540225,0.0,0.0,0.0,0.0,0.0,0.0,0.540225,0.0,0.0,0.0,0.0,0.0,0.0,0.540225,0.0,0.0,0.0,0.0,0.0,0.0,-1.0,0.0,0.0,0.0,0.0,0.0,0.0,0.0,0.0,0.0,0.0,0.0,0.0,0.0,0.0
1594660114596889531,257,1594660114599584055,gps_base,0.529,0.318,0.742,0.0,0.0,0.0,0.502681,0.0,0.0,0.0,0.0,0.0,0.0,0.502681,0.0,0.0,0.0,0.0,0.0,0.0,0.502681,0.0,0.0,0.0,0.0,0.0,0.0,-1.0,0.0,0.0,0.0,0.0,0.0,0.0,0.0,0.0,0.0,0.0,0.0,0.0,0.0,0.0
1594660114796595776,258,1594660114799584007,gps_base,0.44,0.39,0.736,0.0,0.0,0.0,0.506944,0.0,0.0,0.0,0.0,0.0,0.0,0.506944,0.0,0.0,0.0,0.0,0.0,0.0,0.506944,0.0,0.0,0.0,0.0,0.0,0.0,-1.0,0.0,0.0,0.0,0.0,0.0,0.0,0.0,0.0,0.0,0.0,0.0,0.0,0.0,0.0
1594660115000165987,259,1594660114999583959,gps_base,0.502,0.378,0.724,0.0,0.0,0.0,0.546121,0.0,0.0,0.0,0.0,0.0,0.0,0.546121,0.0,0.0,0.0,0.0,0.0,0.0,0.546121,0.0,0.0,0.0,0.0,0.0,0.0,-1.0,0.0,0.0,0.0,0.0,0.0,0.0,0.0,0.0,0.0,0.0,0.0,0.0,0.0,0.0
1594660115396852375,260,1594660115399583861,gps_base,0.453,0.378,0.74,0.0,0.0,0.0,0.546121,0.0,0.0,0.0,0.0,0.0,0.0,0.546121,0.0,0.0,0.0,0.0,0.0,0.0,0.546121,0.0,0.0,0.0,0.0,0.0,0.0,-1.0,0.0,0.0,0.0,0.0,0.0,0.0,0.0,0.0,0.0,0.0,0.0,0.0,0.0,0.0
1594660115596836733,261,1594660115599583812,gps_base,0.426,0.381,0.729,0.0,0.0,0.0,0.529984,0.0,0.0,0.0,0.0,0.0,0.0,0.529984,0.0,0.0,0.0,0.0,0.0,0.0,0.529984,0.0,0.0,0.0,0.0,0.0,0.0,-1.0,0.0,0.0,0.0,0.0,0.0,0.0,0.0,0.0,0.0,0.0,0.0,0.0,0.0,0.0
1594660115796769479,262,1594660115799583764,gps_base,0.401,0.363,0.768,0.0,0.0,0.0,0.495616,0.0,0.0,0.0,0.0,0.0,0.0,0.495616,0.0,0.0,0.0,0.0,0.0,0.0,0.495616,0.0,0.0,0.0,0.0,0.0,0.0,-1.0,0.0,0.0,0.0,0.0,0.0,0.0,0.0,0.0,0.0,0.0,0.0,0.0,0.0,0.0
1594660116000006331,263,1594660115999583717,gps_base,0.4,0.475,0.773,0.0,0.0,0.0,0.494209,0.0,0.0,0.0,0.0,0.0,0.0,0.494209,0.0,0.0,0.0,0.0,0.0,0.0,0.494209,0.0,0.0,0.0,0.0,0.0,0.0,-1.0,0.0,0.0,0.0,0.0,0.0,0.0,0.0,0.0,0.0,0.0,0.0,0.0,0.0,0.0
1594660116196798038,264,1594660116199583668,gps_base,0.23,0.573,0.756,0.0,0.0,0.0,0.470596,0.0,0.0,0.0,0.0,0.0,0.0,0.470596,0.0,0.0,0.0,0.0,0.0,0.0,0.470596,0.0,0.0,0.0,0.0,0.0,0.0,-1.0,0.0,0.0,0.0,0.0,0.0,0.0,0.0,0.0,0.0,0.0,0.0,0.0,0.0,0.0
1594660116396518619,265,1594660116399583621,gps_base,0.209,0.545,0.765,0.0,0.0,0.0,0.470596,0.0,0.0,0.0,0.0,0.0,0.0,0.470596,0.0,0.0,0.0,0.0,0.0,0.0,0.470596,0.0,0.0,0.0,0.0,0.0,0.0,-1.0,0.0,0.0,0.0,0.0,0.0,0.0,0.0,0.0,0.0,0.0,0.0,0.0,0.0,0.0
1594660116596418766,266,1594660116599583573,gps_base,0.381,0.555,0.748,0.0,0.0,0.0,0.485809,0.0,0.0,0.0,0.0,0.0,0.0,0.485809,0.0,0.0,0.0,0.0,0.0,0.0,0.485809,0.0,0.0,0.0,0.0,0.0,0.0,-1.0,0.0,0.0,0.0,0.0,0.0,0.0,0.0,0.0,0.0,0.0,0.0,0.0,0.0,0.0
1594660116796582962,267,1594660116799583526,gps_base,0.368,0.47,0.727,0.0,0.0,0.0,0.474721,0.0,0.0,0.0,0.0,0.0,0.0,0.474721,0.0,0.0,0.0,0.0,0.0,0.0,0.474721,0.0,0.0,0.0,0.0,0.0,0.0,-1.0,0.0,0.0,0.0,0.0,0.0,0.0,0.0,0.0,0.0,0.0,0.0,0.0,0.0,0.0
1594660116999976653,268,1594660116999583480,gps_base,0.212,0.414,0.718,0.0,0.0,0.0,0.452929,0.0,0.0,0.0,0.0,0.0,0.0,0.452929,0.0,0.0,0.0,0.0,0.0,0.0,0.452929,0.0,0.0,0.0,0.0,0.0,0.0,-1.0,0.0,0.0,0.0,0.0,0.0,0.0,0.0,0.0,0.0,0.0,0.0,0.0,0.0,0.0
1594660117196569347,269,1594660117199583432,gps_base,0.197,0.443,0.702,0.0,0.0,0.0,0.456976,0.0,0.0,0.0,0.0,0.0,0.0,0.456976,0.0,0.0,0.0,0.0,0.0,0.0,0.456976,0.0,0.0,0.0,0.0,0.0,0.0,-1.0,0.0,0.0,0.0,0.0,0.0,0.0,0.0,0.0,0.0,0.0,0.0,0.0,0.0,0.0
1594660117397238525,270,1594660117399583384,gps_base,0.084,0.481,0.695,0.0,0.0,0.0,0.480249,0.0,0.0,0.0,0.0,0.0,0.0,0.480249,0.0,0.0,0.0,0.0,0.0,0.0,0.480249,0.0,0.0,0.0,0.0,0.0,0.0,-1.0,0.0,0.0,0.0,0.0,0.0,0.0,0.0,0.0,0.0,0.0,0.0,0.0,0.0,0.0
1594660117596935519,271,1594660117599583336,gps_base,-0.086,0.598,0.705,0.0,0.0,0.0,0.525625,0.0,0.0,0.0,0.0,0.0,0.0,0.525625,0.0,0.0,0.0,0.0,0.0,0.0,0.525625,0.0,0.0,0.0,0.0,0.0,0.0,-1.0,0.0,0.0,0.0,0.0,0.0,0.0,0.0,0.0,0.0,0.0,0.0,0.0,0.0,0.0
1594660117796666803,272,1594660117799583287,gps_base,-0.192,0.151,0.725,0.0,0.0,0.0,0.620944,0.0,0.0,0.0,0.0,0.0,0.0,0.620944,0.0,0.0,0.0,0.0,0.0,0.0,0.620944,0.0,0.0,0.0,0.0,0.0,0.0,-1.0,0.0,0.0,0.0,0.0,0.0,0.0,0.0,0.0,0.0,0.0,0.0,0.0,0.0,0.0
1594660118000118433,273,1594660117999583239,gps_base,-0.575,-0.217,0.756,0.0,0.0,0.0,0.982081,0.0,0.0,0.0,0.0,0.0,0.0,0.982081,0.0,0.0,0.0,0.0,0.0,0.0,0.982081,0.0,0.0,0.0,0.0,0.0,0.0,-1.0,0.0,0.0,0.0,0.0,0.0,0.0,0.0,0.0,0.0,0.0,0.0,0.0,0.0,0.0
1594660118196636385,274,1594660118199583191,gps_base,-0.454,-0.016,0.77,0.0,0.0,0.0,0.874225,0.0,0.0,0.0,0.0,0.0,0.0,0.874225,0.0,0.0,0.0,0.0,0.0,0.0,0.874225,0.0,0.0,0.0,0.0,0.0,0.0,-1.0,0.0,0.0,0.0,0.0,0.0,0.0,0.0,0.0,0.0,0.0,0.0,0.0,0.0,0.0
1594660118396281656,275,1594660118399583144,gps_base,-0.277,-0.001,0.746,0.0,0.0,0.0,0.729316,0.0,0.0,0.0,0.0,0.0,0.0,0.729316,0.0,0.0,0.0,0.0,0.0,0.0,0.729316,0.0,0.0,0.0,0.0,0.0,0.0,-1.0,0.0,0.0,0.0,0.0,0.0,0.0,0.0,0.0,0.0,0.0,0.0,0.0,0.0,0.0
1594660118596763368,276,1594660118599583096,gps_base,-0.21,0.201,0.742,0.0,0.0,0.0,0.638401,0.0,0.0,0.0,0.0,0.0,0.0,0.638401,0.0,0.0,0.0,0.0,0.0,0.0,0.638401,0.0,0.0,0.0,0.0,0.0,0.0,-1.0,0.0,0.0,0.0,0.0,0.0,0.0,0.0,0.0,0.0,0.0,0.0,0.0,0.0,0.0
1594660118796386187,277,1594660118799583048,gps_base,-0.249,0.213,0.763,0.0,0.0,0.0,0.660969,0.0,0.0,0.0,0.0,0.0,0.0,0.660969,0.0,0.0,0.0,0.0,0.0,0.0,0.660969,0.0,0.0,0.0,0.0,0.0,0.0,-1.0,0.0,0.0,0.0,0.0,0.0,0.0,0.0,0.0,0.0,0.0,0.0,0.0,0.0,0.0
1594660119000088762,278,1594660118999583002,gps_base,-0.006,0.213,0.734,0.0,0.0,0.0,0.512656,0.0,0.0,0.0,0.0,0.0,0.0,0.512656,0.0,0.0,0.0,0.0,0.0,0.0,0.512656,0.0,0.0,0.0,0.0,0.0,0.0,-1.0,0.0,0.0,0.0,0.0,0.0,0.0,0.0,0.0,0.0,0.0,0.0,0.0,0.0,0.0
1594660119196433702,279,1594660119199582954,gps_base,0.07,0.328,0.718,0.0,0.0,0.0,0.481636,0.0,0.0,0.0,0.0,0.0,0.0,0.481636,0.0,0.0,0.0,0.0,0.0,0.0,0.481636,0.0,0.0,0.0,0.0,0.0,0.0,-1.0,0.0,0.0,0.0,0.0,0.0,0.0,0.0,0.0,0.0,0.0,0.0,0.0,0.0,0.0
1594660119596649023,280,1594660119599582860,gps_base,0.144,0.484,0.709,0.0,0.0,0.0,0.465124,0.0,0.0,0.0,0.0,0.0,0.0,0.465124,0.0,0.0,0.0,0.0,0.0,0.0,0.465124,0.0,0.0,0.0,0.0,0.0,0.0,-1.0,0.0,0.0,0.0,0.0,0.0,0.0,0.0,0.0,0.0,0.0,0.0,0.0,0.0,0.0
1594660119796881637,281,1594660119799582813,gps_base,0.135,0.557,0.705,0.0,0.0,0.0,0.465124,0.0,0.0,0.0,0.0,0.0,0.0,0.465124,0.0,0.0,0.0,0.0,0.0,0.0,0.465124,0.0,0.0,0.0,0.0,0.0,0.0,-1.0,0.0,0.0,0.0,0.0,0.0,0.0,0.0,0.0,0.0,0.0,0.0,0.0,0.0,0.0
1594660119999682392,282,1594660119999582767,gps_base,0.059,0.57,0.686,0.0,0.0,0.0,0.471969,0.0,0.0,0.0,0.0,0.0,0.0,0.471969,0.0,0.0,0.0,0.0,0.0,0.0,0.471969,0.0,0.0,0.0,0.0,0.0,0.0,-1.0,0.0,0.0,0.0,0.0,0.0,0.0,0.0,0.0,0.0,0.0,0.0,0.0,0.0,0.0
1594660120196161479,283,1594660120199582719,gps_base,0.274,0.593,0.651,0.0,0.0,0.0,0.455625,0.0,0.0,0.0,0.0,0.0,0.0,0.455625,0.0,0.0,0.0,0.0,0.0,0.0,0.455625,0.0,0.0,0.0,0.0,0.0,0.0,-1.0,0.0,0.0,0.0,0.0,0.0,0.0,0.0,0.0,0.0,0.0,0.0,0.0,0.0,0.0
1594660120396519605,284,1594660120399582673,gps_base,0.236,0.537,0.615,0.0,0.0,0.0,0.427716,0.0,0.0,0.0,0.0,0.0,0.0,0.427716,0.0,0.0,0.0,0.0,0.0,0.0,0.427716,0.0,0.0,0.0,0.0,0.0,0.0,-1.0,0.0,0.0,0.0,0.0,0.0,0.0,0.0,0.0,0.0,0.0,0.0,0.0,0.0,0.0
1594660120596331892,285,1594660120599582625,gps_base,0.184,0.489,0.65,0.0,0.0,0.0,0.423801,0.0,0.0,0.0,0.0,0.0,0.0,0.423801,0.0,0.0,0.0,0.0,0.0,0.0,0.423801,0.0,0.0,0.0,0.0,0.0,0.0,-1.0,0.0,0.0,0.0,0.0,0.0,0.0,0.0,0.0,0.0,0.0,0.0,0.0,0.0,0.0
1594660120796366088,286,1594660120799582577,gps_base,0.317,0.431,0.664,0.0,0.0,0.0,0.431649,0.0,0.0,0.0,0.0,0.0,0.0,0.431649,0.0,0.0,0.0,0.0,0.0,0.0,0.431649,0.0,0.0,0.0,0.0,0.0,0.0,-1.0,0.0,0.0,0.0,0.0,0.0,0.0,0.0,0.0,0.0,0.0,0.0,0.0,0.0,0.0
1594660121000444090,287,1594660120999582531,gps_base,0.231,0.454,0.667,0.0,0.0,0.0,0.429025,0.0,0.0,0.0,0.0,0.0,0.0,0.429025,0.0,0.0,0.0,0.0,0.0,0.0,0.429025,0.0,0.0,0.0,0.0,0.0,0.0,-1.0,0.0,0.0,0.0,0.0,0.0,0.0,0.0,0.0,0.0,0.0,0.0,0.0,0.0,0.0
1594660121596663916,288,1594660121599582389,gps_base,0.371,0.242,0.672,0.0,0.0,0.0,0.432964,0.0,0.0,0.0,0.0,0.0,0.0,0.432964,0.0,0.0,0.0,0.0,0.0,0.0,0.432964,0.0,0.0,0.0,0.0,0.0,0.0,-1.0,0.0,0.0,0.0,0.0,0.0,0.0,0.0,0.0,0.0,0.0,0.0,0.0,0.0,0.0
1594660121796603938,289,1594660121799582341,gps_base,0.347,0.18,0.706,0.0,0.0,0.0,0.429025,0.0,0.0,0.0,0.0,0.0,0.0,0.429025,0.0,0.0,0.0,0.0,0.0,0.0,0.429025,0.0,0.0,0.0,0.0,0.0,0.0,-1.0,0.0,0.0,0.0,0.0,0.0,0.0,0.0,0.0,0.0,0.0,0.0,0.0,0.0,0.0
1594660121999508860,290,1594660121999582296,gps_base,0.592,0.254,0.678,0.0,0.0,0.0,0.487204,0.0,0.0,0.0,0.0,0.0,0.0,0.487204,0.0,0.0,0.0,0.0,0.0,0.0,0.487204,0.0,0.0,0.0,0.0,0.0,0.0,-1.0,0.0,0.0,0.0,0.0,0.0,0.0,0.0,0.0,0.0,0.0,0.0,0.0,0.0,0.0
1594660122196496982,291,1594660122199582247,gps_base,0.503,0.325,0.692,0.0,0.0,0.0,0.452929,0.0,0.0,0.0,0.0,0.0,0.0,0.452929,0.0,0.0,0.0,0.0,0.0,0.0,0.452929,0.0,0.0,0.0,0.0,0.0,0.0,-1.0,0.0,0.0,0.0,0.0,0.0,0.0,0.0,0.0,0.0,0.0,0.0,0.0,0.0,0.0
1594660122396330085,292,1594660122399582200,gps_base,0.422,0.314,0.704,0.0,0.0,0.0,0.4225,0.0,0.0,0.0,0.0,0.0,0.0,0.4225,0.0,0.0,0.0,0.0,0.0,0.0,0.4225,0.0,0.0,0.0,0.0,0.0,0.0,-1.0,0.0,0.0,0.0,0.0,0.0,0.0,0.0,0.0,0.0,0.0,0.0,0.0,0.0,0.0
1594660122596381769,293,1594660122599582153,gps_base,0.555,0.199,0.693,0.0,0.0,0.0,0.455625,0.0,0.0,0.0,0.0,0.0,0.0,0.455625,0.0,0.0,0.0,0.0,0.0,0.0,0.455625,0.0,0.0,0.0,0.0,0.0,0.0,-1.0,0.0,0.0,0.0,0.0,0.0,0.0,0.0,0.0,0.0,0.0,0.0,0.0,0.0,0.0
1594660122796416267,294,1594660122799582106,gps_base,0.432,0.199,0.725,0.0,0.0,0.0,0.425104,0.0,0.0,0.0,0.0,0.0,0.0,0.425104,0.0,0.0,0.0,0.0,0.0,0.0,0.425104,0.0,0.0,0.0,0.0,0.0,0.0,-1.0,0.0,0.0,0.0,0.0,0.0,0.0,0.0,0.0,0.0,0.0,0.0,0.0,0.0,0.0
1594660122999870108,295,1594660122999582060,gps_base,0.391,0.27,0.73,0.0,0.0,0.0,0.416025,0.0,0.0,0.0,0.0,0.0,0.0,0.416025,0.0,0.0,0.0,0.0,0.0,0.0,0.416025,0.0,0.0,0.0,0.0,0.0,0.0,-1.0,0.0,0.0,0.0,0.0,0.0,0.0,0.0,0.0,0.0,0.0,0.0,0.0,0.0,0.0
1594660123396586002,296,1594660123399581964,gps_base,0.494,0.358,0.744,0.0,0.0,0.0,0.423801,0.0,0.0,0.0,0.0,0.0,0.0,0.423801,0.0,0.0,0.0,0.0,0.0,0.0,0.423801,0.0,0.0,0.0,0.0,0.0,0.0,-1.0,0.0,0.0,0.0,0.0,0.0,0.0,0.0,0.0,0.0,0.0,0.0,0.0,0.0,0.0
1594660123596561243,297,1594660123599581917,gps_base,0.386,0.457,0.781,0.0,0.0,0.0,0.405769,0.0,0.0,0.0,0.0,0.0,0.0,0.405769,0.0,0.0,0.0,0.0,0.0,0.0,0.405769,0.0,0.0,0.0,0.0,0.0,0.0,-1.0,0.0,0.0,0.0,0.0,0.0,0.0,0.0,0.0,0.0,0.0,0.0,0.0,0.0,0.0
1594660123796345843,298,1594660123799581870,gps_base,0.678,0.472,0.758,0.0,0.0,0.0,0.451584,0.0,0.0,0.0,0.0,0.0,0.0,0.451584,0.0,0.0,0.0,0.0,0.0,0.0,0.451584,0.0,0.0,0.0,0.0,0.0,0.0,-1.0,0.0,0.0,0.0,0.0,0.0,0.0,0.0,0.0,0.0,0.0,0.0,0.0,0.0,0.0
1594660124000410258,299,1594660123999581825,gps_base,0.507,0.333,0.769,0.0,0.0,0.0,0.418609,0.0,0.0,0.0,0.0,0.0,0.0,0.418609,0.0,0.0,0.0,0.0,0.0,0.0,0.418609,0.0,0.0,0.0,0.0,0.0,0.0,-1.0,0.0,0.0,0.0,0.0,0.0,0.0,0.0,0.0,0.0,0.0,0.0,0.0,0.0,0.0
1594660124395955745,300,1594660124399581731,gps_base,0.593,0.468,0.743,0.0,0.0,0.0,0.421201,0.0,0.0,0.0,0.0,0.0,0.0,0.421201,0.0,0.0,0.0,0.0,0.0,0.0,0.421201,0.0,0.0,0.0,0.0,0.0,0.0,-1.0,0.0,0.0,0.0,0.0,0.0,0.0,0.0,0.0,0.0,0.0,0.0,0.0,0.0,0.0
1594660124596531725,301,1594660124599581684,gps_base,0.519,0.447,0.759,0.0,0.0,0.0,0.403225,0.0,0.0,0.0,0.0,0.0,0.0,0.403225,0.0,0.0,0.0,0.0,0.0,0.0,0.403225,0.0,0.0,0.0,0.0,0.0,0.0,-1.0,0.0,0.0,0.0,0.0,0.0,0.0,0.0,0.0,0.0,0.0,0.0,0.0,0.0,0.0
1594660124796385945,302,1594660124799581638,gps_base,0.504,0.464,0.773,0.0,0.0,0.0,0.395641,0.0,0.0,0.0,0.0,0.0,0.0,0.395641,0.0,0.0,0.0,0.0,0.0,0.0,0.395641,0.0,0.0,0.0,0.0,0.0,0.0,-1.0,0.0,0.0,0.0,0.0,0.0,0.0,0.0,0.0,0.0,0.0,0.0,0.0,0.0,0.0
1594660124999647281,303,1594660124999581592,gps_base,0.636,0.374,0.752,0.0,0.0,0.0,0.4225,0.0,0.0,0.0,0.0,0.0,0.0,0.4225,0.0,0.0,0.0,0.0,0.0,0.0,0.4225,0.0,0.0,0.0,0.0,0.0,0.0,-1.0,0.0,0.0,0.0,0.0,0.0,0.0,0.0,0.0,0.0,0.0,0.0,0.0,0.0,0.0
1594660125396285619,304,1594660125399581498,gps_base,0.302,0.372,0.778,0.0,0.0,0.0,0.378225,0.0,0.0,0.0,0.0,0.0,0.0,0.378225,0.0,0.0,0.0,0.0,0.0,0.0,0.378225,0.0,0.0,0.0,0.0,0.0,0.0,-1.0,0.0,0.0,0.0,0.0,0.0,0.0,0.0,0.0,0.0,0.0,0.0,0.0,0.0,0.0
1594660125596106437,305,1594660125599581451,gps_base,0.438,0.418,0.744,0.0,0.0,0.0,0.379456,0.0,0.0,0.0,0.0,0.0,0.0,0.379456,0.0,0.0,0.0,0.0,0.0,0.0,0.379456,0.0,0.0,0.0,0.0,0.0,0.0,-1.0,0.0,0.0,0.0,0.0,0.0,0.0,0.0,0.0,0.0,0.0,0.0,0.0,0.0,0.0
1594660125796511035,306,1594660125799581404,gps_base,0.271,0.598,0.774,0.0,0.0,0.0,0.381924,0.0,0.0,0.0,0.0,0.0,0.0,0.381924,0.0,0.0,0.0,0.0,0.0,0.0,0.381924,0.0,0.0,0.0,0.0,0.0,0.0,-1.0,0.0,0.0,0.0,0.0,0.0,0.0,0.0,0.0,0.0,0.0,0.0,0.0,0.0,0.0
1594660125999754432,307,1594660125999581359,gps_base,0.358,0.637,0.784,0.0,0.0,0.0,0.376996,0.0,0.0,0.0,0.0,0.0,0.0,0.376996,0.0,0.0,0.0,0.0,0.0,0.0,0.376996,0.0,0.0,0.0,0.0,0.0,0.0,-1.0,0.0,0.0,0.0,0.0,0.0,0.0,0.0,0.0,0.0,0.0,0.0,0.0,0.0,0.0
1594660126196413237,308,1594660126199581311,gps_base,0.511,0.49,0.771,0.0,0.0,0.0,0.379456,0.0,0.0,0.0,0.0,0.0,0.0,0.379456,0.0,0.0,0.0,0.0,0.0,0.0,0.379456,0.0,0.0,0.0,0.0,0.0,0.0,-1.0,0.0,0.0,0.0,0.0,0.0,0.0,0.0,0.0,0.0,0.0,0.0,0.0,0.0,0.0
1594660126596532298,309,1594660126599581219,gps_base,0.37,0.439,0.763,0.0,0.0,0.0,0.361201,0.0,0.0,0.0,0.0,0.0,0.0,0.361201,0.0,0.0,0.0,0.0,0.0,0.0,0.361201,0.0,0.0,0.0,0.0,0.0,0.0,-1.0,0.0,0.0,0.0,0.0,0.0,0.0,0.0,0.0,0.0,0.0,0.0,0.0,0.0,0.0
1594660126796138480,310,1594660126799581174,gps_base,0.517,0.38,0.742,0.0,0.0,0.0,0.373321,0.0,0.0,0.0,0.0,0.0,0.0,0.373321,0.0,0.0,0.0,0.0,0.0,0.0,0.373321,0.0,0.0,0.0,0.0,0.0,0.0,-1.0,0.0,0.0,0.0,0.0,0.0,0.0,0.0,0.0,0.0,0.0,0.0,0.0,0.0,0.0
1594660126999939385,311,1594660126999581127,gps_base,0.355,0.561,0.777,0.0,0.0,0.0,0.368449,0.0,0.0,0.0,0.0,0.0,0.0,0.368449,0.0,0.0,0.0,0.0,0.0,0.0,0.368449,0.0,0.0,0.0,0.0,0.0,0.0,-1.0,0.0,0.0,0.0,0.0,0.0,0.0,0.0,0.0,0.0,0.0,0.0,0.0,0.0,0.0
1594660127196342608,312,1594660127199581081,gps_base,0.347,0.494,0.775,0.0,0.0,0.0,0.355216,0.0,0.0,0.0,0.0,0.0,0.0,0.355216,0.0,0.0,0.0,0.0,0.0,0.0,0.355216,0.0,0.0,0.0,0.0,0.0,0.0,-1.0,0.0,0.0,0.0,0.0,0.0,0.0,0.0,0.0,0.0,0.0,0.0,0.0,0.0,0.0
1594660127396067530,313,1594660127399581036,gps_base,0.411,0.352,0.735,0.0,0.0,0.0,0.345744,0.0,0.0,0.0,0.0,0.0,0.0,0.345744,0.0,0.0,0.0,0.0,0.0,0.0,0.345744,0.0,0.0,0.0,0.0,0.0,0.0,-1.0,0.0,0.0,0.0,0.0,0.0,0.0,0.0,0.0,0.0,0.0,0.0,0.0,0.0,0.0
1594660127597044915,314,1594660127599580989,gps_base,0.263,0.471,0.743,0.0,0.0,0.0,0.36,0.0,0.0,0.0,0.0,0.0,0.0,0.36,0.0,0.0,0.0,0.0,0.0,0.0,0.36,0.0,0.0,0.0,0.0,0.0,0.0,-1.0,0.0,0.0,0.0,0.0,0.0,0.0,0.0,0.0,0.0,0.0,0.0,0.0,0.0,0.0
1594660127796437676,315,1594660127799580942,gps_base,0.13,0.481,0.758,0.0,0.0,0.0,0.380689,0.0,0.0,0.0,0.0,0.0,0.0,0.380689,0.0,0.0,0.0,0.0,0.0,0.0,0.380689,0.0,0.0,0.0,0.0,0.0,0.0,-1.0,0.0,0.0,0.0,0.0,0.0,0.0,0.0,0.0,0.0,0.0,0.0,0.0,0.0,0.0
1594660128000138082,316,1594660127999580898,gps_base,0.145,0.656,0.718,0.0,0.0,0.0,0.376996,0.0,0.0,0.0,0.0,0.0,0.0,0.376996,0.0,0.0,0.0,0.0,0.0,0.0,0.376996,0.0,0.0,0.0,0.0,0.0,0.0,-1.0,0.0,0.0,0.0,0.0,0.0,0.0,0.0,0.0,0.0,0.0,0.0,0.0,0.0,0.0
1594660128196351854,317,1594660128199580851,gps_base,-0.025,0.667,0.741,0.0,0.0,0.0,0.4225,0.0,0.0,0.0,0.0,0.0,0.0,0.4225,0.0,0.0,0.0,0.0,0.0,0.0,0.4225,0.0,0.0,0.0,0.0,0.0,0.0,-1.0,0.0,0.0,0.0,0.0,0.0,0.0,0.0,0.0,0.0,0.0,0.0,0.0,0.0,0.0
1594660128396351780,318,1594660128399580804,gps_base,-0.453,0.725,0.78,0.0,0.0,0.0,0.6241,0.0,0.0,0.0,0.0,0.0,0.0,0.6241,0.0,0.0,0.0,0.0,0.0,0.0,0.6241,0.0,0.0,0.0,0.0,0.0,0.0,-1.0,0.0,0.0,0.0,0.0,0.0,0.0,0.0,0.0,0.0,0.0,0.0,0.0,0.0,0.0
1594660128596127903,319,1594660128599580760,gps_base,-0.184,0.653,0.733,0.0,0.0,0.0,0.502681,0.0,0.0,0.0,0.0,0.0,0.0,0.502681,0.0,0.0,0.0,0.0,0.0,0.0,0.502681,0.0,0.0,0.0,0.0,0.0,0.0,-1.0,0.0,0.0,0.0,0.0,0.0,0.0,0.0,0.0,0.0,0.0,0.0,0.0,0.0,0.0
1594660128795934267,320,1594660128799580714,gps_base,-0.261,0.608,0.742,0.0,0.0,0.0,0.565504,0.0,0.0,0.0,0.0,0.0,0.0,0.565504,0.0,0.0,0.0,0.0,0.0,0.0,0.565504,0.0,0.0,0.0,0.0,0.0,0.0,-1.0,0.0,0.0,0.0,0.0,0.0,0.0,0.0,0.0,0.0,0.0,0.0,0.0,0.0,0.0
1594660128999973425,321,1594660128999580671,gps_base,-0.245,0.688,0.731,0.0,0.0,0.0,0.546121,0.0,0.0,0.0,0.0,0.0,0.0,0.546121,0.0,0.0,0.0,0.0,0.0,0.0,0.546121,0.0,0.0,0.0,0.0,0.0,0.0,-1.0,0.0,0.0,0.0,0.0,0.0,0.0,0.0,0.0,0.0,0.0,0.0,0.0,0.0,0.0
1594660129395977865,322,1594660129399580578,gps_base,-0.216,0.814,0.734,0.0,0.0,0.0,0.5329,0.0,0.0,0.0,0.0,0.0,0.0,0.5329,0.0,0.0,0.0,0.0,0.0,0.0,0.5329,0.0,0.0,0.0,0.0,0.0,0.0,-1.0,0.0,0.0,0.0,0.0,0.0,0.0,0.0,0.0,0.0,0.0,0.0,0.0,0.0,0.0
1594660129600866631,323,1594660129599580534,gps_base,-0.142,0.803,0.741,0.0,0.0,0.0,0.499849,0.0,0.0,0.0,0.0,0.0,0.0,0.499849,0.0,0.0,0.0,0.0,0.0,0.0,0.499849,0.0,0.0,0.0,0.0,0.0,0.0,-1.0,0.0,0.0,0.0,0.0,0.0,0.0,0.0,0.0,0.0,0.0,0.0,0.0,0.0,0.0
1594660129796027269,324,1594660129799580489,gps_base,-0.053,0.769,0.731,0.0,0.0,0.0,0.470596,0.0,0.0,0.0,0.0,0.0,0.0,0.470596,0.0,0.0,0.0,0.0,0.0,0.0,0.470596,0.0,0.0,0.0,0.0,0.0,0.0,-1.0,0.0,0.0,0.0,0.0,0.0,0.0,0.0,0.0,0.0,0.0,0.0,0.0,0.0,0.0
1594660129999754960,325,1594660129999580445,gps_base,-0.097,0.722,0.733,0.0,0.0,0.0,0.484416,0.0,0.0,0.0,0.0,0.0,0.0,0.484416,0.0,0.0,0.0,0.0,0.0,0.0,0.484416,0.0,0.0,0.0,0.0,0.0,0.0,-1.0,0.0,0.0,0.0,0.0,0.0,0.0,0.0,0.0,0.0,0.0,0.0,0.0,0.0,0.0
1594660130199377502,326,1594660130199580400,gps_base,0.009,0.805,0.743,0.0,0.0,0.0,0.447561,0.0,0.0,0.0,0.0,0.0,0.0,0.447561,0.0,0.0,0.0,0.0,0.0,0.0,0.447561,0.0,0.0,0.0,0.0,0.0,0.0,-1.0,0.0,0.0,0.0,0.0,0.0,0.0,0.0,0.0,0.0,0.0,0.0,0.0,0.0,0.0
1594660130596208230,327,1594660130599580310,gps_base,-0.231,0.728,0.696,0.0,0.0,0.0,0.553536,0.0,0.0,0.0,0.0,0.0,0.0,0.553536,0.0,0.0,0.0,0.0,0.0,0.0,0.553536,0.0,0.0,0.0,0.0,0.0,0.0,-1.0,0.0,0.0,0.0,0.0,0.0,0.0,0.0,0.0,0.0,0.0,0.0,0.0,0.0,0.0
1594660130795740171,328,1594660130799580267,gps_base,-0.061,0.797,0.713,0.0,0.0,0.0,0.494209,0.0,0.0,0.0,0.0,0.0,0.0,0.494209,0.0,0.0,0.0,0.0,0.0,0.0,0.494209,0.0,0.0,0.0,0.0,0.0,0.0,-1.0,0.0,0.0,0.0,0.0,0.0,0.0,0.0,0.0,0.0,0.0,0.0,0.0,0.0,0.0
1594660130998963947,329,1594660130999580224,gps_base,-0.014,1.022,0.715,0.0,0.0,0.0,0.527076,0.0,0.0,0.0,0.0,0.0,0.0,0.527076,0.0,0.0,0.0,0.0,0.0,0.0,0.527076,0.0,0.0,0.0,0.0,0.0,0.0,-1.0,0.0,0.0,0.0,0.0,0.0,0.0,0.0,0.0,0.0,0.0,0.0,0.0,0.0,0.0
1594660131196113432,330,1594660131199580178,gps_base,-0.199,1.013,0.71,0.0,0.0,0.0,0.632025,0.0,0.0,0.0,0.0,0.0,0.0,0.632025,0.0,0.0,0.0,0.0,0.0,0.0,0.632025,0.0,0.0,0.0,0.0,0.0,0.0,-1.0,0.0,0.0,0.0,0.0,0.0,0.0,0.0,0.0,0.0,0.0,0.0,0.0,0.0,0.0
1594660131395842449,331,1594660131399580133,gps_base,-0.281,0.988,0.72,0.0,0.0,0.0,0.697225,0.0,0.0,0.0,0.0,0.0,0.0,0.697225,0.0,0.0,0.0,0.0,0.0,0.0,0.697225,0.0,0.0,0.0,0.0,0.0,0.0,-1.0,0.0,0.0,0.0,0.0,0.0,0.0,0.0,0.0,0.0,0.0,0.0,0.0,0.0,0.0
1594660131595802289,332,1594660131599580088,gps_base,-0.747,0.99,0.72,0.0,0.0,0.0,0.826281,0.0,0.0,0.0,0.0,0.0,0.0,0.826281,0.0,0.0,0.0,0.0,0.0,0.0,0.826281,0.0,0.0,0.0,0.0,0.0,0.0,-1.0,0.0,0.0,0.0,0.0,0.0,0.0,0.0,0.0,0.0,0.0,0.0,0.0,0.0,0.0
1594660131796645533,333,1594660131799580043,gps_base,-0.882,0.936,0.72,0.0,0.0,0.0,0.840889,0.0,0.0,0.0,0.0,0.0,0.0,0.840889,0.0,0.0,0.0,0.0,0.0,0.0,0.840889,0.0,0.0,0.0,0.0,0.0,0.0,-1.0,0.0,0.0,0.0,0.0,0.0,0.0,0.0,0.0,0.0,0.0,0.0,0.0,0.0,0.0
1594660131999378913,334,1594660131999579998,gps_base,-1.059,0.968,0.741,0.0,0.0,0.0,0.781456,0.0,0.0,0.0,0.0,0.0,0.0,0.781456,0.0,0.0,0.0,0.0,0.0,0.0,0.781456,0.0,0.0,0.0,0.0,0.0,0.0,-1.0,0.0,0.0,0.0,0.0,0.0,0.0,0.0,0.0,0.0,0.0,0.0,0.0,0.0,0.0
1594660132195911305,335,1594660132199579952,gps_base,-1.091,0.848,0.746,0.0,0.0,0.0,0.760384,0.0,0.0,0.0,0.0,0.0,0.0,0.760384,0.0,0.0,0.0,0.0,0.0,0.0,0.760384,0.0,0.0,0.0,0.0,0.0,0.0,-1.0,0.0,0.0,0.0,0.0,0.0,0.0,0.0,0.0,0.0,0.0,0.0,0.0,0.0,0.0
1594660132396012387,336,1594660132399579907,gps_base,-1.275,0.924,0.738,0.0,0.0,0.0,0.749956,0.0,0.0,0.0,0.0,0.0,0.0,0.749956,0.0,0.0,0.0,0.0,0.0,0.0,0.749956,0.0,0.0,0.0,0.0,0.0,0.0,-1.0,0.0,0.0,0.0,0.0,0.0,0.0,0.0,0.0,0.0,0.0,0.0,0.0,0.0,0.0
1594660132595902689,337,1594660132599579861,gps_base,-1.307,0.892,0.78,0.0,0.0,0.0,0.741321,0.0,0.0,0.0,0.0,0.0,0.0,0.741321,0.0,0.0,0.0,0.0,0.0,0.0,0.741321,0.0,0.0,0.0,0.0,0.0,0.0,-1.0,0.0,0.0,0.0,0.0,0.0,0.0,0.0,0.0,0.0,0.0,0.0,0.0,0.0,0.0
1594660132795666969,338,1594660132799579816,gps_base,-1.193,0.749,0.759,0.0,0.0,0.0,0.729316,0.0,0.0,0.0,0.0,0.0,0.0,0.729316,0.0,0.0,0.0,0.0,0.0,0.0,0.729316,0.0,0.0,0.0,0.0,0.0,0.0,-1.0,0.0,0.0,0.0,0.0,0.0,0.0,0.0,0.0,0.0,0.0,0.0,0.0,0.0,0.0
1594660132999252530,339,1594660132999579773,gps_base,-1.29,0.513,0.707,0.0,0.0,0.0,0.806404,0.0,0.0,0.0,0.0,0.0,0.0,0.806404,0.0,0.0,0.0,0.0,0.0,0.0,0.806404,0.0,0.0,0.0,0.0,0.0,0.0,-1.0,0.0,0.0,0.0,0.0,0.0,0.0,0.0,0.0,0.0,0.0,0.0,0.0,0.0,0.0
1594660133196033437,340,1594660133199579726,gps_base,-1.373,0.198,0.749,0.0,0.0,0.0,0.8836,0.0,0.0,0.0,0.0,0.0,0.0,0.8836,0.0,0.0,0.0,0.0,0.0,0.0,0.8836,0.0,0.0,0.0,0.0,0.0,0.0,-1.0,0.0,0.0,0.0,0.0,0.0,0.0,0.0,0.0,0.0,0.0,0.0,0.0,0.0,0.0
1594660133395640729,341,1594660133399579681,gps_base,-1.441,0.249,0.763,0.0,0.0,0.0,0.881721,0.0,0.0,0.0,0.0,0.0,0.0,0.881721,0.0,0.0,0.0,0.0,0.0,0.0,0.881721,0.0,0.0,0.0,0.0,0.0,0.0,-1.0,0.0,0.0,0.0,0.0,0.0,0.0,0.0,0.0,0.0,0.0,0.0,0.0,0.0,0.0
1594660133596621819,342,1594660133599579636,gps_base,-1.469,0.253,0.739,0.0,0.0,0.0,0.877969,0.0,0.0,0.0,0.0,0.0,0.0,0.877969,0.0,0.0,0.0,0.0,0.0,0.0,0.877969,0.0,0.0,0.0,0.0,0.0,0.0,-1.0,0.0,0.0,0.0,0.0,0.0,0.0,0.0,0.0,0.0,0.0,0.0,0.0,0.0,0.0
1594660133795671334,343,1594660133799579591,gps_base,-1.73,0.151,0.761,0.0,0.0,0.0,0.896809,0.0,0.0,0.0,0.0,0.0,0.0,0.896809,0.0,0.0,0.0,0.0,0.0,0.0,0.896809,0.0,0.0,0.0,0.0,0.0,0.0,-1.0,0.0,0.0,0.0,0.0,0.0,0.0,0.0,0.0,0.0,0.0,0.0,0.0,0.0,0.0
1594660133998984205,344,1594660133999579548,gps_base,-1.625,0.075,0.734,0.0,0.0,0.0,0.912025,0.0,0.0,0.0,0.0,0.0,0.0,0.912025,0.0,0.0,0.0,0.0,0.0,0.0,0.912025,0.0,0.0,0.0,0.0,0.0,0.0,-1.0,0.0,0.0,0.0,0.0,0.0,0.0,0.0,0.0,0.0,0.0,0.0,0.0,0.0,0.0
1594660134195930273,345,1594660134199579501,gps_base,-1.823,-0.07,0.716,0.0,0.0,0.0,0.927369,0.0,0.0,0.0,0.0,0.0,0.0,0.927369,0.0,0.0,0.0,0.0,0.0,0.0,0.927369,0.0,0.0,0.0,0.0,0.0,0.0,-1.0,0.0,0.0,0.0,0.0,0.0,0.0,0.0,0.0,0.0,0.0,0.0,0.0,0.0,0.0
1594660134595451514,346,1594660134599579410,gps_base,-1.951,-0.08,0.74,0.0,0.0,0.0,0.935089,0.0,0.0,0.0,0.0,0.0,0.0,0.935089,0.0,0.0,0.0,0.0,0.0,0.0,0.935089,0.0,0.0,0.0,0.0,0.0,0.0,-1.0,0.0,0.0,0.0,0.0,0.0,0.0,0.0,0.0,0.0,0.0,0.0,0.0,0.0,0.0
1594660134796119945,347,1594660134799579364,gps_base,-1.908,-0.056,0.754,0.0,0.0,0.0,0.929296,0.0,0.0,0.0,0.0,0.0,0.0,0.929296,0.0,0.0,0.0,0.0,0.0,0.0,0.929296,0.0,0.0,0.0,0.0,0.0,0.0,-1.0,0.0,0.0,0.0,0.0,0.0,0.0,0.0,0.0,0.0,0.0,0.0,0.0,0.0,0.0
1594660134999672532,348,1594660134999579321,gps_base,-1.887,-0.134,0.773,0.0,0.0,0.0,0.927369,0.0,0.0,0.0,0.0,0.0,0.0,0.927369,0.0,0.0,0.0,0.0,0.0,0.0,0.927369,0.0,0.0,0.0,0.0,0.0,0.0,-1.0,0.0,0.0,0.0,0.0,0.0,0.0,0.0,0.0,0.0,0.0,0.0,0.0,0.0,0.0
1594660135196122254,349,1594660135199579274,gps_base,-1.854,-0.075,0.761,0.0,0.0,0.0,0.925444,0.0,0.0,0.0,0.0,0.0,0.0,0.925444,0.0,0.0,0.0,0.0,0.0,0.0,0.925444,0.0,0.0,0.0,0.0,0.0,0.0,-1.0,0.0,0.0,0.0,0.0,0.0,0.0,0.0,0.0,0.0,0.0,0.0,0.0,0.0,0.0
1594660135396466598,350,1594660135399579230,gps_base,-1.799,0.034,0.751,0.0,0.0,0.0,0.917764,0.0,0.0,0.0,0.0,0.0,0.0,0.917764,0.0,0.0,0.0,0.0,0.0,0.0,0.917764,0.0,0.0,0.0,0.0,0.0,0.0,-1.0,0.0,0.0,0.0,0.0,0.0,0.0,0.0,0.0,0.0,0.0,0.0,0.0,0.0,0.0
1594660135596359189,351,1594660135599579186,gps_base,-1.873,-0.115,0.735,0.0,0.0,0.0,0.931225,0.0,0.0,0.0,0.0,0.0,0.0,0.931225,0.0,0.0,0.0,0.0,0.0,0.0,0.931225,0.0,0.0,0.0,0.0,0.0,0.0,-1.0,0.0,0.0,0.0,0.0,0.0,0.0,0.0,0.0,0.0,0.0,0.0,0.0,0.0,0.0
1594660135796370766,352,1594660135799579141,gps_base,-1.923,-0.09,0.727,0.0,0.0,0.0,0.929296,0.0,0.0,0.0,0.0,0.0,0.0,0.929296,0.0,0.0,0.0,0.0,0.0,0.0,0.929296,0.0,0.0,0.0,0.0,0.0,0.0,-1.0,0.0,0.0,0.0,0.0,0.0,0.0,0.0,0.0,0.0,0.0,0.0,0.0,0.0,0.0
1594660136000180671,353,1594660135999579097,gps_base,-1.907,-0.038,0.722,0.0,0.0,0.0,0.9216,0.0,0.0,0.0,0.0,0.0,0.0,0.9216,0.0,0.0,0.0,0.0,0.0,0.0,0.9216,0.0,0.0,0.0,0.0,0.0,0.0,-1.0,0.0,0.0,0.0,0.0,0.0,0.0,0.0,0.0,0.0,0.0,0.0,0.0,0.0,0.0
1594660136196213813,354,1594660136199579051,gps_base,-1.879,-0.236,0.747,0.0,0.0,0.0,0.933156,0.0,0.0,0.0,0.0,0.0,0.0,0.933156,0.0,0.0,0.0,0.0,0.0,0.0,0.933156,0.0,0.0,0.0,0.0,0.0,0.0,-1.0,0.0,0.0,0.0,0.0,0.0,0.0,0.0,0.0,0.0,0.0,0.0,0.0,0.0,0.0
1594660136395812628,355,1594660136399579006,gps_base,-1.837,-0.276,0.765,0.0,0.0,0.0,0.925444,0.0,0.0,0.0,0.0,0.0,0.0,0.925444,0.0,0.0,0.0,0.0,0.0,0.0,0.925444,0.0,0.0,0.0,0.0,0.0,0.0,-1.0,0.0,0.0,0.0,0.0,0.0,0.0,0.0,0.0,0.0,0.0,0.0,0.0,0.0,0.0
1594660136596420299,356,1594660136599578961,gps_base,-1.762,0.035,0.755,0.0,0.0,0.0,0.904401,0.0,0.0,0.0,0.0,0.0,0.0,0.904401,0.0,0.0,0.0,0.0,0.0,0.0,0.904401,0.0,0.0,0.0,0.0,0.0,0.0,-1.0,0.0,0.0,0.0,0.0,0.0,0.0,0.0,0.0,0.0,0.0,0.0,0.0,0.0,0.0
1594660136795852625,357,1594660136799578918,gps_base,-1.844,-0.133,0.75,0.0,0.0,0.0,0.877969,0.0,0.0,0.0,0.0,0.0,0.0,0.877969,0.0,0.0,0.0,0.0,0.0,0.0,0.877969,0.0,0.0,0.0,0.0,0.0,0.0,-1.0,0.0,0.0,0.0,0.0,0.0,0.0,0.0,0.0,0.0,0.0,0.0,0.0,0.0,0.0
1594660136999603503,358,1594660136999578873,gps_base,-1.723,-0.201,0.737,0.0,0.0,0.0,0.866761,0.0,0.0,0.0,0.0,0.0,0.0,0.866761,0.0,0.0,0.0,0.0,0.0,0.0,0.866761,0.0,0.0,0.0,0.0,0.0,0.0,-1.0,0.0,0.0,0.0,0.0,0.0,0.0,0.0,0.0,0.0,0.0,0.0,0.0,0.0,0.0
1594660137196512479,359,1594660137199578828,gps_base,-1.879,-0.158,0.716,0.0,0.0,0.0,0.851929,0.0,0.0,0.0,0.0,0.0,0.0,0.851929,0.0,0.0,0.0,0.0,0.0,0.0,0.851929,0.0,0.0,0.0,0.0,0.0,0.0,-1.0,0.0,0.0,0.0,0.0,0.0,0.0,0.0,0.0,0.0,0.0,0.0,0.0,0.0,0.0
1594660137396148331,360,1594660137399578784,gps_base,-1.926,-0.229,0.702,0.0,0.0,0.0,0.842724,0.0,0.0,0.0,0.0,0.0,0.0,0.842724,0.0,0.0,0.0,0.0,0.0,0.0,0.842724,0.0,0.0,0.0,0.0,0.0,0.0,-1.0,0.0,0.0,0.0,0.0,0.0,0.0,0.0,0.0,0.0,0.0,0.0,0.0,0.0,0.0
1594660137596682592,361,1594660137599578740,gps_base,-1.866,-0.248,0.674,0.0,0.0,0.0,0.8464,0.0,0.0,0.0,0.0,0.0,0.0,0.8464,0.0,0.0,0.0,0.0,0.0,0.0,0.8464,0.0,0.0,0.0,0.0,0.0,0.0,-1.0,0.0,0.0,0.0,0.0,0.0,0.0,0.0,0.0,0.0,0.0,0.0,0.0,0.0,0.0
1594660137796306381,362,1594660137799578696,gps_base,-1.788,-0.117,0.669,0.0,0.0,0.0,0.833569,0.0,0.0,0.0,0.0,0.0,0.0,0.833569,0.0,0.0,0.0,0.0,0.0,0.0,0.833569,0.0,0.0,0.0,0.0,0.0,0.0,-1.0,0.0,0.0,0.0,0.0,0.0,0.0,0.0,0.0,0.0,0.0,0.0,0.0,0.0,0.0
1594660137999399550,363,1594660137999578652,gps_base,-2.034,-0.258,0.709,0.0,0.0,0.0,0.842724,0.0,0.0,0.0,0.0,0.0,0.0,0.842724,0.0,0.0,0.0,0.0,0.0,0.0,0.842724,0.0,0.0,0.0,0.0,0.0,0.0,-1.0,0.0,0.0,0.0,0.0,0.0,0.0,0.0,0.0,0.0,0.0,0.0,0.0,0.0,0.0
1594660138196849809,364,1594660138199578605,gps_base,-1.993,-0.197,0.711,0.0,0.0,0.0,0.835396,0.0,0.0,0.0,0.0,0.0,0.0,0.835396,0.0,0.0,0.0,0.0,0.0,0.0,0.835396,0.0,0.0,0.0,0.0,0.0,0.0,-1.0,0.0,0.0,0.0,0.0,0.0,0.0,0.0,0.0,0.0,0.0,0.0,0.0,0.0,0.0
1594660138396319065,365,1594660138399578561,gps_base,-1.894,-0.17,0.689,0.0,0.0,0.0,0.835396,0.0,0.0,0.0,0.0,0.0,0.0,0.835396,0.0,0.0,0.0,0.0,0.0,0.0,0.835396,0.0,0.0,0.0,0.0,0.0,0.0,-1.0,0.0,0.0,0.0,0.0,0.0,0.0,0.0,0.0,0.0,0.0,0.0,0.0,0.0,0.0
1594660138596228991,366,1594660138599578516,gps_base,-1.966,-0.077,0.705,0.0,0.0,0.0,0.826281,0.0,0.0,0.0,0.0,0.0,0.0,0.826281,0.0,0.0,0.0,0.0,0.0,0.0,0.826281,0.0,0.0,0.0,0.0,0.0,0.0,-1.0,0.0,0.0,0.0,0.0,0.0,0.0,0.0,0.0,0.0,0.0,0.0,0.0,0.0,0.0
1594660138795713765,367,1594660138799578471,gps_base,-2.204,-0.185,0.703,0.0,0.0,0.0,0.829921,0.0,0.0,0.0,0.0,0.0,0.0,0.829921,0.0,0.0,0.0,0.0,0.0,0.0,0.829921,0.0,0.0,0.0,0.0,0.0,0.0,-1.0,0.0,0.0,0.0,0.0,0.0,0.0,0.0,0.0,0.0,0.0,0.0,0.0,0.0,0.0
1594660138999323410,368,1594660138999578428,gps_base,-2.129,-0.056,0.684,0.0,0.0,0.0,0.853776,0.0,0.0,0.0,0.0,0.0,0.0,0.853776,0.0,0.0,0.0,0.0,0.0,0.0,0.853776,0.0,0.0,0.0,0.0,0.0,0.0,-1.0,0.0,0.0,0.0,0.0,0.0,0.0,0.0,0.0,0.0,0.0,0.0,0.0,0.0,0.0
1594660139196006479,369,1594660139199578381,gps_base,-2.208,-0.113,0.714,0.0,0.0,0.0,0.879844,0.0,0.0,0.0,0.0,0.0,0.0,0.879844,0.0,0.0,0.0,0.0,0.0,0.0,0.879844,0.0,0.0,0.0,0.0,0.0,0.0,-1.0,0.0,0.0,0.0,0.0,0.0,0.0,0.0,0.0,0.0,0.0,0.0,0.0,0.0,0.0
1594660139596666440,370,1594660139599578292,gps_base,-1.983,-0.034,0.706,0.0,0.0,0.0,0.910116,0.0,0.0,0.0,0.0,0.0,0.0,0.910116,0.0,0.0,0.0,0.0,0.0,0.0,0.910116,0.0,0.0,0.0,0.0,0.0,0.0,-1.0,0.0,0.0,0.0,0.0,0.0,0.0,0.0,0.0,0.0,0.0,0.0,0.0,0.0,0.0
1594660139796522518,371,1594660139799578248,gps_base,-2.13,-0.157,0.716,0.0,0.0,0.0,0.944784,0.0,0.0,0.0,0.0,0.0,0.0,0.944784,0.0,0.0,0.0,0.0,0.0,0.0,0.944784,0.0,0.0,0.0,0.0,0.0,0.0,-1.0,0.0,0.0,0.0,0.0,0.0,0.0,0.0,0.0,0.0,0.0,0.0,0.0,0.0,0.0
1594660139999460065,372,1594660139999578205,gps_base,-2.146,-0.151,0.716,0.0,0.0,0.0,0.9409,0.0,0.0,0.0,0.0,0.0,0.0,0.9409,0.0,0.0,0.0,0.0,0.0,0.0,0.9409,0.0,0.0,0.0,0.0,0.0,0.0,-1.0,0.0,0.0,0.0,0.0,0.0,0.0,0.0,0.0,0.0,0.0,0.0,0.0,0.0,0.0
1594660140396525620,373,1594660140399578115,gps_base,-2.274,-0.283,0.734,0.0,0.0,0.0,0.952576,0.0,0.0,0.0,0.0,0.0,0.0,0.952576,0.0,0.0,0.0,0.0,0.0,0.0,0.952576,0.0,0.0,0.0,0.0,0.0,0.0,-1.0,0.0,0.0,0.0,0.0,0.0,0.0,0.0,0.0,0.0,0.0,0.0,0.0,0.0,0.0
1594660140596059678,374,1594660140599578071,gps_base,-2.142,-0.2,0.717,0.0,0.0,0.0,0.946729,0.0,0.0,0.0,0.0,0.0,0.0,0.946729,0.0,0.0,0.0,0.0,0.0,0.0,0.946729,0.0,0.0,0.0,0.0,0.0,0.0,-1.0,0.0,0.0,0.0,0.0,0.0,0.0,0.0,0.0,0.0,0.0,0.0,0.0,0.0,0.0
1594660140796211376,375,1594660140799578026,gps_base,-2.132,-0.258,0.714,0.0,0.0,0.0,0.944784,0.0,0.0,0.0,0.0,0.0,0.0,0.944784,0.0,0.0,0.0,0.0,0.0,0.0,0.944784,0.0,0.0,0.0,0.0,0.0,0.0,-1.0,0.0,0.0,0.0,0.0,0.0,0.0,0.0,0.0,0.0,0.0,0.0,0.0,0.0,0.0
1594660140999520181,376,1594660140999577983,gps_base,-2.2,-0.224,0.759,0.0,0.0,0.0,0.9409,0.0,0.0,0.0,0.0,0.0,0.0,0.9409,0.0,0.0,0.0,0.0,0.0,0.0,0.9409,0.0,0.0,0.0,0.0,0.0,0.0,-1.0,0.0,0.0,0.0,0.0,0.0,0.0,0.0,0.0,0.0,0.0,0.0,0.0,0.0,0.0
1594660141195817760,377,1594660141199577938,gps_base,-2.229,-0.282,0.728,0.0,0.0,0.0,0.952576,0.0,0.0,0.0,0.0,0.0,0.0,0.952576,0.0,0.0,0.0,0.0,0.0,0.0,0.952576,0.0,0.0,0.0,0.0,0.0,0.0,-1.0,0.0,0.0,0.0,0.0,0.0,0.0,0.0,0.0,0.0,0.0,0.0,0.0,0.0,0.0
1594660141395809547,378,1594660141399577895,gps_base,-2.206,-0.249,0.705,0.0,0.0,0.0,0.952576,0.0,0.0,0.0,0.0,0.0,0.0,0.952576,0.0,0.0,0.0,0.0,0.0,0.0,0.952576,0.0,0.0,0.0,0.0,0.0,0.0,-1.0,0.0,0.0,0.0,0.0,0.0,0.0,0.0,0.0,0.0,0.0,0.0,0.0,0.0,0.0
1594660141595871897,379,1594660141599577852,gps_base,-2.318,-0.271,0.703,0.0,0.0,0.0,0.952576,0.0,0.0,0.0,0.0,0.0,0.0,0.952576,0.0,0.0,0.0,0.0,0.0,0.0,0.952576,0.0,0.0,0.0,0.0,0.0,0.0,-1.0,0.0,0.0,0.0,0.0,0.0,0.0,0.0,0.0,0.0,0.0,0.0,0.0,0.0,0.0
1594660141795560391,380,1594660141799577808,gps_base,-2.323,-0.341,0.702,0.0,0.0,0.0,0.952576,0.0,0.0,0.0,0.0,0.0,0.0,0.952576,0.0,0.0,0.0,0.0,0.0,0.0,0.952576,0.0,0.0,0.0,0.0,0.0,0.0,-1.0,0.0,0.0,0.0,0.0,0.0,0.0,0.0,0.0,0.0,0.0,0.0,0.0,0.0,0.0
1594660141999594536,381,1594660141999577764,gps_base,-2.274,-0.236,0.711,0.0,0.0,0.0,0.946729,0.0,0.0,0.0,0.0,0.0,0.0,0.946729,0.0,0.0,0.0,0.0,0.0,0.0,0.946729,0.0,0.0,0.0,0.0,0.0,0.0,-1.0,0.0,0.0,0.0,0.0,0.0,0.0,0.0,0.0,0.0,0.0,0.0,0.0,0.0,0.0
1594660142196458941,382,1594660142199577720,gps_base,-2.366,-0.183,0.727,0.0,0.0,0.0,0.950625,0.0,0.0,0.0,0.0,0.0,0.0,0.950625,0.0,0.0,0.0,0.0,0.0,0.0,0.950625,0.0,0.0,0.0,0.0,0.0,0.0,-1.0,0.0,0.0,0.0,0.0,0.0,0.0,0.0,0.0,0.0,0.0,0.0,0.0,0.0,0.0
1594660142395756897,383,1594660142399577676,gps_base,-2.12,-0.228,0.705,0.0,0.0,0.0,0.9604,0.0,0.0,0.0,0.0,0.0,0.0,0.9604,0.0,0.0,0.0,0.0,0.0,0.0,0.9604,0.0,0.0,0.0,0.0,0.0,0.0,-1.0,0.0,0.0,0.0,0.0,0.0,0.0,0.0,0.0,0.0,0.0,0.0,0.0,0.0,0.0
1594660142595955133,384,1594660142599577633,gps_base,-1.849,0.04,0.693,0.0,0.0,0.0,0.937024,0.0,0.0,0.0,0.0,0.0,0.0,0.937024,0.0,0.0,0.0,0.0,0.0,0.0,0.937024,0.0,0.0,0.0,0.0,0.0,0.0,-1.0,0.0,0.0,0.0,0.0,0.0,0.0,0.0,0.0,0.0,0.0,0.0,0.0,0.0,0.0
1594660142796152437,385,1594660142799577589,gps_base,-1.741,0.124,0.736,0.0,0.0,0.0,0.970225,0.0,0.0,0.0,0.0,0.0,0.0,0.970225,0.0,0.0,0.0,0.0,0.0,0.0,0.970225,0.0,0.0,0.0,0.0,0.0,0.0,-1.0,0.0,0.0,0.0,0.0,0.0,0.0,0.0,0.0,0.0,0.0,0.0,0.0,0.0,0.0
1594660142999285643,386,1594660142999577546,gps_base,-1.737,-0.047,0.758,0.0,0.0,0.0,1.075369,0.0,0.0,0.0,0.0,0.0,0.0,1.075369,0.0,0.0,0.0,0.0,0.0,0.0,1.075369,0.0,0.0,0.0,0.0,0.0,0.0,-1.0,0.0,0.0,0.0,0.0,0.0,0.0,0.0,0.0,0.0,0.0,0.0,0.0,0.0,0.0
1594660143196017836,387,1594660143199577501,gps_base,-2.062,-0.08,0.758,0.0,0.0,0.0,1.134225,0.0,0.0,0.0,0.0,0.0,0.0,1.134225,0.0,0.0,0.0,0.0,0.0,0.0,1.134225,0.0,0.0,0.0,0.0,0.0,0.0,-1.0,0.0,0.0,0.0,0.0,0.0,0.0,0.0,0.0,0.0,0.0,0.0,0.0,0.0,0.0
1594660143395469341,388,1594660143399577456,gps_base,-2.185,-0.328,0.775,0.0,0.0,0.0,1.216609,0.0,0.0,0.0,0.0,0.0,0.0,1.216609,0.0,0.0,0.0,0.0,0.0,0.0,1.216609,0.0,0.0,0.0,0.0,0.0,0.0,-1.0,0.0,0.0,0.0,0.0,0.0,0.0,0.0,0.0,0.0,0.0,0.0,0.0,0.0,0.0
1594660143595148030,389,1594660143599577413,gps_base,-2.2,-0.444,0.774,0.0,0.0,0.0,1.265625,0.0,0.0,0.0,0.0,0.0,0.0,1.265625,0.0,0.0,0.0,0.0,0.0,0.0,1.265625,0.0,0.0,0.0,0.0,0.0,0.0,-1.0,0.0,0.0,0.0,0.0,0.0,0.0,0.0,0.0,0.0,0.0,0.0,0.0,0.0,0.0
1594660143796050982,390,1594660143799577369,gps_base,-2.177,-0.637,0.783,0.0,0.0,0.0,1.306449,0.0,0.0,0.0,0.0,0.0,0.0,1.306449,0.0,0.0,0.0,0.0,0.0,0.0,1.306449,0.0,0.0,0.0,0.0,0.0,0.0,-1.0,0.0,0.0,0.0,0.0,0.0,0.0,0.0,0.0,0.0,0.0,0.0,0.0,0.0,0.0
1594660143999021536,391,1594660143999577326,gps_base,-2.266,-0.643,0.815,0.0,0.0,0.0,1.313316,0.0,0.0,0.0,0.0,0.0,0.0,1.313316,0.0,0.0,0.0,0.0,0.0,0.0,1.313316,0.0,0.0,0.0,0.0,0.0,0.0,-1.0,0.0,0.0,0.0,0.0,0.0,0.0,0.0,0.0,0.0,0.0,0.0,0.0,0.0,0.0
1594660144195795892,392,1594660144199577281,gps_base,-2.241,-0.571,0.821,0.0,0.0,0.0,1.340964,0.0,0.0,0.0,0.0,0.0,0.0,1.340964,0.0,0.0,0.0,0.0,0.0,0.0,1.340964,0.0,0.0,0.0,0.0,0.0,0.0,-1.0,0.0,0.0,0.0,0.0,0.0,0.0,0.0,0.0,0.0,0.0,0.0,0.0,0.0,0.0
1594660144796525864,393,1594660144799577149,gps_base,-2.27,-0.516,0.905,0.0,0.0,0.0,1.432809,0.0,0.0,0.0,0.0,0.0,0.0,1.432809,0.0,0.0,0.0,0.0,0.0,0.0,1.432809,0.0,0.0,0.0,0.0,0.0,0.0,-1.0,0.0,0.0,0.0,0.0,0.0,0.0,0.0,0.0,0.0,0.0,0.0,0.0,0.0,0.0
1594660144999468970,394,1594660144999577107,gps_base,-2.146,-0.461,0.907,0.0,0.0,0.0,1.432809,0.0,0.0,0.0,0.0,0.0,0.0,1.432809,0.0,0.0,0.0,0.0,0.0,0.0,1.432809,0.0,0.0,0.0,0.0,0.0,0.0,-1.0,0.0,0.0,0.0,0.0,0.0,0.0,0.0,0.0,0.0,0.0,0.0,0.0,0.0,0.0
1594660145195436146,395,1594660145199577063,gps_base,-2.069,-0.461,0.922,0.0,0.0,0.0,1.452025,0.0,0.0,0.0,0.0,0.0,0.0,1.452025,0.0,0.0,0.0,0.0,0.0,0.0,1.452025,0.0,0.0,0.0,0.0,0.0,0.0,-1.0,0.0,0.0,0.0,0.0,0.0,0.0,0.0,0.0,0.0,0.0,0.0,0.0,0.0,0.0
1594660145395376943,396,1594660145399577021,gps_base,-2.38,-0.323,0.871,0.0,0.0,0.0,1.430416,0.0,0.0,0.0,0.0,0.0,0.0,1.430416,0.0,0.0,0.0,0.0,0.0,0.0,1.430416,0.0,0.0,0.0,0.0,0.0,0.0,-1.0,0.0,0.0,0.0,0.0,0.0,0.0,0.0,0.0,0.0,0.0,0.0,0.0,0.0,0.0
1594660145595899879,397,1594660145599576978,gps_base,-2.374,-0.266,0.838,0.0,0.0,0.0,1.420864,0.0,0.0,0.0,0.0,0.0,0.0,1.420864,0.0,0.0,0.0,0.0,0.0,0.0,1.420864,0.0,0.0,0.0,0.0,0.0,0.0,-1.0,0.0,0.0,0.0,0.0,0.0,0.0,0.0,0.0,0.0,0.0,0.0,0.0,0.0,0.0
1594660145795824106,398,1594660145799576936,gps_base,-2.324,-0.094,0.842,0.0,0.0,0.0,1.359556,0.0,0.0,0.0,0.0,0.0,0.0,1.359556,0.0,0.0,0.0,0.0,0.0,0.0,1.359556,0.0,0.0,0.0,0.0,0.0,0.0,-1.0,0.0,0.0,0.0,0.0,0.0,0.0,0.0,0.0,0.0,0.0,0.0,0.0,0.0,0.0
1594660145998749704,399,1594660145999576894,gps_base,-2.194,-0.068,0.841,0.0,0.0,0.0,1.3456,0.0,0.0,0.0,0.0,0.0,0.0,1.3456,0.0,0.0,0.0,0.0,0.0,0.0,1.3456,0.0,0.0,0.0,0.0,0.0,0.0,-1.0,0.0,0.0,0.0,0.0,0.0,0.0,0.0,0.0,0.0,0.0,0.0,0.0,0.0,0.0
1594660146195341980,400,1594660146199576851,gps_base,-2.191,-0.045,0.804,0.0,0.0,0.0,1.350244,0.0,0.0,0.0,0.0,0.0,0.0,1.350244,0.0,0.0,0.0,0.0,0.0,0.0,1.350244,0.0,0.0,0.0,0.0,0.0,0.0,-1.0,0.0,0.0,0.0,0.0,0.0,0.0,0.0,0.0,0.0,0.0,0.0,0.0,0.0,0.0
1594660146394917409,401,1594660146399576808,gps_base,-2.031,-0.007,0.826,0.0,0.0,0.0,1.336336,0.0,0.0,0.0,0.0,0.0,0.0,1.336336,0.0,0.0,0.0,0.0,0.0,0.0,1.336336,0.0,0.0,0.0,0.0,0.0,0.0,-1.0,0.0,0.0,0.0,0.0,0.0,0.0,0.0,0.0,0.0,0.0,0.0,0.0,0.0,0.0
1594660146795163467,402,1594660146799576721,gps_base,-1.638,0.088,0.846,0.0,0.0,0.0,1.285956,0.0,0.0,0.0,0.0,0.0,0.0,1.285956,0.0,0.0,0.0,0.0,0.0,0.0,1.285956,0.0,0.0,0.0,0.0,0.0,0.0,-1.0,0.0,0.0,0.0,0.0,0.0,0.0,0.0,0.0,0.0,0.0,0.0,0.0,0.0,0.0
1594660146998363257,403,1594660146999576680,gps_base,-1.503,0.181,0.85,0.0,0.0,0.0,1.229881,0.0,0.0,0.0,0.0,0.0,0.0,1.229881,0.0,0.0,0.0,0.0,0.0,0.0,1.229881,0.0,0.0,0.0,0.0,0.0,0.0,-1.0,0.0,0.0,0.0,0.0,0.0,0.0,0.0,0.0,0.0,0.0,0.0,0.0,0.0,0.0
1594660147395125354,404,1594660147399576594,gps_base,-1.33,0.257,0.86,0.0,0.0,0.0,1.177225,0.0,0.0,0.0,0.0,0.0,0.0,1.177225,0.0,0.0,0.0,0.0,0.0,0.0,1.177225,0.0,0.0,0.0,0.0,0.0,0.0,-1.0,0.0,0.0,0.0,0.0,0.0,0.0,0.0,0.0,0.0,0.0,0.0,0.0,0.0,0.0
1594660147594637682,405,1594660147599576551,gps_base,-1.287,0.15,0.893,0.0,0.0,0.0,1.243225,0.0,0.0,0.0,0.0,0.0,0.0,1.243225,0.0,0.0,0.0,0.0,0.0,0.0,1.243225,0.0,0.0,0.0,0.0,0.0,0.0,-1.0,0.0,0.0,0.0,0.0,0.0,0.0,0.0,0.0,0.0,0.0,0.0,0.0,0.0,0.0
1594660147794888956,406,1594660147799576508,gps_base,-1.31,0.2,0.911,0.0,0.0,0.0,1.221025,0.0,0.0,0.0,0.0,0.0,0.0,1.221025,0.0,0.0,0.0,0.0,0.0,0.0,1.221025,0.0,0.0,0.0,0.0,0.0,0.0,-1.0,0.0,0.0,0.0,0.0,0.0,0.0,0.0,0.0,0.0,0.0,0.0,0.0,0.0,0.0
1594660148195040770,407,1594660148199576422,gps_base,-1.354,0.042,0.921,0.0,0.0,0.0,1.390041,0.0,0.0,0.0,0.0,0.0,0.0,1.390041,0.0,0.0,0.0,0.0,0.0,0.0,1.390041,0.0,0.0,0.0,0.0,0.0,0.0,-1.0,0.0,0.0,0.0,0.0,0.0,0.0,0.0,0.0,0.0,0.0,0.0,0.0,0.0,0.0
1594660148395212641,408,1594660148399576379,gps_base,-1.363,-0.098,0.956,0.0,0.0,0.0,1.449616,0.0,0.0,0.0,0.0,0.0,0.0,1.449616,0.0,0.0,0.0,0.0,0.0,0.0,1.449616,0.0,0.0,0.0,0.0,0.0,0.0,-1.0,0.0,0.0,0.0,0.0,0.0,0.0,0.0,0.0,0.0,0.0,0.0,0.0,0.0,0.0
1594660148795419393,409,1594660148799576293,gps_base,-1.817,-0.231,0.95,0.0,0.0,0.0,1.570009,0.0,0.0,0.0,0.0,0.0,0.0,1.570009,0.0,0.0,0.0,0.0,0.0,0.0,1.570009,0.0,0.0,0.0,0.0,0.0,0.0,-1.0,0.0,0.0,0.0,0.0,0.0,0.0,0.0,0.0,0.0,0.0,0.0,0.0,0.0,0.0
1594660148998516714,410,1594660148999576251,gps_base,-1.884,-0.178,0.964,0.0,0.0,0.0,1.542564,0.0,0.0,0.0,0.0,0.0,0.0,1.542564,0.0,0.0,0.0,0.0,0.0,0.0,1.542564,0.0,0.0,0.0,0.0,0.0,0.0,-1.0,0.0,0.0,0.0,0.0,0.0,0.0,0.0,0.0,0.0,0.0,0.0,0.0,0.0,0.0
1594660149195240881,411,1594660149199576207,gps_base,-1.636,-0.011,0.964,0.0,0.0,0.0,1.420864,0.0,0.0,0.0,0.0,0.0,0.0,1.420864,0.0,0.0,0.0,0.0,0.0,0.0,1.420864,0.0,0.0,0.0,0.0,0.0,0.0,-1.0,0.0,0.0,0.0,0.0,0.0,0.0,0.0,0.0,0.0,0.0,0.0,0.0,0.0,0.0
1594660149394518982,412,1594660149399576164,gps_base,-1.551,0.029,0.997,0.0,0.0,0.0,1.357225,0.0,0.0,0.0,0.0,0.0,0.0,1.357225,0.0,0.0,0.0,0.0,0.0,0.0,1.357225,0.0,0.0,0.0,0.0,0.0,0.0,-1.0,0.0,0.0,0.0,0.0,0.0,0.0,0.0,0.0,0.0,0.0,0.0,0.0,0.0,0.0
1594660149594478822,413,1594660149599576122,gps_base,-1.571,-0.014,0.999,0.0,0.0,0.0,1.371241,0.0,0.0,0.0,0.0,0.0,0.0,1.371241,0.0,0.0,0.0,0.0,0.0,0.0,1.371241,0.0,0.0,0.0,0.0,0.0,0.0,-1.0,0.0,0.0,0.0,0.0,0.0,0.0,0.0,0.0,0.0,0.0,0.0,0.0,0.0,0.0
1594660149794476336,414,1594660149799576079,gps_base,-1.54,-0.057,1.009,0.0,0.0,0.0,1.380625,0.0,0.0,0.0,0.0,0.0,0.0,1.380625,0.0,0.0,0.0,0.0,0.0,0.0,1.380625,0.0,0.0,0.0,0.0,0.0,0.0,-1.0,0.0,0.0,0.0,0.0,0.0,0.0,0.0,0.0,0.0,0.0,0.0,0.0,0.0,0.0
1594660149998060912,415,1594660149999576037,gps_base,-1.463,-0.028,1.018,0.0,0.0,0.0,1.347921,0.0,0.0,0.0,0.0,0.0,0.0,1.347921,0.0,0.0,0.0,0.0,0.0,0.0,1.347921,0.0,0.0,0.0,0.0,0.0,0.0,-1.0,0.0,0.0,0.0,0.0,0.0,0.0,0.0,0.0,0.0,0.0,0.0,0.0,0.0,0.0
1594660150194246357,416,1594660150199575994,gps_base,-1.279,-0.013,1.031,0.0,0.0,0.0,1.279161,0.0,0.0,0.0,0.0,0.0,0.0,1.279161,0.0,0.0,0.0,0.0,0.0,0.0,1.279161,0.0,0.0,0.0,0.0,0.0,0.0,-1.0,0.0,0.0,0.0,0.0,0.0,0.0,0.0,0.0,0.0,0.0,0.0,0.0,0.0,0.0
1594660150394644174,417,1594660150399575951,gps_base,-1.266,-0.129,1.015,0.0,0.0,0.0,1.357225,0.0,0.0,0.0,0.0,0.0,0.0,1.357225,0.0,0.0,0.0,0.0,0.0,0.0,1.357225,0.0,0.0,0.0,0.0,0.0,0.0,-1.0,0.0,0.0,0.0,0.0,0.0,0.0,0.0,0.0,0.0,0.0,0.0,0.0,0.0,0.0
1594660150594305513,418,1594660150599575909,gps_base,-1.309,-0.026,1.02,0.0,0.0,0.0,1.308736,0.0,0.0,0.0,0.0,0.0,0.0,1.308736,0.0,0.0,0.0,0.0,0.0,0.0,1.308736,0.0,0.0,0.0,0.0,0.0,0.0,-1.0,0.0,0.0,0.0,0.0,0.0,0.0,0.0,0.0,0.0,0.0,0.0,0.0,0.0,0.0
